[
  {
    "landing_point_id": "tortola-virgin-islands-u-k-",
    "name": "Tortola, Virgin Islands (U.K.)",
    "latitude": 18.414781849275833,
    "longitude": -64.5972432846129,
    "country": "Unknown",
    "cables": [],
    "cable_count": 0,
    "url": "",
    "feature_id": ""
  },
  {
    "landing_point_id": "great-bay-virgin-islands-u-s-",
    "name": "Great Bay, Virgin Islands (U.S.)",
    "latitude": 18.322472111215845,
    "longitude": -64.84319037600663,
    "country": "Unknown",
    "cables": [],
    "cable_count": 0,
    "url": "",
    "feature_id": ""
  },
  {
    "landing_point_id": "brewers-bay-virgin-islands-u-s-",
    "name": "Brewer's Bay, Virgin Islands (U.S.)",
    "latitude": 18.342402587783717,
    "longitude": -64.97531918865539,
    "country": "Unknown",
    "cables": [],
    "cable_count": 0,
    "url": "",
    "feature_id": ""
  },
  {
    "landing_point_id": "frederiksted-virgin-islands-u-s-",
    "name": "Frederiksted, Virgin Islands (U.S.)",
    "latitude": 17.71242997088509,
    "longitude": -64.88152042697823,
    "country": "Unknown",
    "cables": [],
    "cable_count": 0,
    "url": "",
    "feature_id": ""
  },
  {
    "landing_point_id": "christiansted-virgin-islands-virgin-islands-u-s-",
    "name": "Christiansted, Virgin Islands, Virgin Islands (U.S.)",
    "latitude": 17.746660579229843,
    "longitude": -64.70315141271153,
    "country": "Unknown",
    "cables": [],
    "cable_count": 0,
    "url": "",
    "feature_id": ""
  },
  {
    "landing_point_id": "carrickfergus-united-kingdom",
    "name": "Carrickfergus, United Kingdom",
    "latitude": 54.71367039332284,
    "longitude": -5.808173603216411,
    "country": "Unknown",
    "cables": [],
    "cable_count": 0,
    "url": "",
    "feature_id": ""
  },
  {
    "landing_point_id": "saltcoats-united-kingdom",
    "name": "Saltcoats, United Kingdom",
    "latitude": 55.63758019678909,
    "longitude": -4.783516125969337,
    "country": "Unknown",
    "cables": [],
    "cable_count": 0,
    "url": "",
    "feature_id": ""
  },
  {
    "landing_point_id": "douglas-isle-of-man",
    "name": "Douglas, Isle of Man",
    "latitude": 54.15027516173659,
    "longitude": -4.480879621608963,
    "country": "Unknown",
    "cables": [],
    "cable_count": 0,
    "url": "",
    "feature_id": ""
  },
  {
    "landing_point_id": "silecroft-beach-united-kingdom",
    "name": "Silecroft Beach, United Kingdom",
    "latitude": 54.21062739961812,
    "longitude": -3.35714994891956,
    "country": "Unknown",
    "cables": [],
    "cable_count": 0,
    "url": "",
    "feature_id": ""
  },
  {
    "landing_point_id": "groudle-bay-isle-of-man",
    "name": "Groudle Bay, Isle of Man",
    "latitude": 54.16697942720116,
    "longitude": -4.423897240100775,
    "country": "Unknown",
    "cables": [],
    "cable_count": 0,
    "url": "",
    "feature_id": ""
  },
  {
    "landing_point_id": "peel-isle-of-man",
    "name": "Peel, Isle of Man",
    "latitude": 54.22244748636314,
    "longitude": -4.691426347455632,
    "country": "Unknown",
    "cables": [],
    "cable_count": 0,
    "url": "",
    "feature_id": ""
  },
  {
    "landing_point_id": "ballywater-united-kingdom",
    "name": "Ballywater, United Kingdom",
    "latitude": 54.542741580201856,
    "longitude": -5.484394535704497,
    "country": "Unknown",
    "cables": [],
    "cable_count": 0,
    "url": "",
    "feature_id": ""
  },
  {
    "landing_point_id": "port-grenaugh-isle-of-man",
    "name": "Port Grenaugh, Isle of Man",
    "latitude": 54.09999306170466,
    "longitude": -4.566670576458828,
    "country": "Unknown",
    "cables": [],
    "cable_count": 0,
    "url": "",
    "feature_id": ""
  },
  {
    "landing_point_id": "hulhumale-maldives",
    "name": "Hulhumale, Maldives",
    "latitude": 4.211942635751779,
    "longitude": 73.54015885755544,
    "country": "Unknown",
    "cables": [],
    "cable_count": 0,
    "url": "",
    "feature_id": ""
  },
  {
    "landing_point_id": "kulhudhufushi-maldives",
    "name": "Kulhudhufushi, Maldives",
    "latitude": 6.622441345756148,
    "longitude": 73.07140918962199,
    "country": "Unknown",
    "cables": [],
    "cable_count": 0,
    "url": "",
    "feature_id": ""
  },
  {
    "landing_point_id": "eydhafushi-maldives",
    "name": "Eydhafushi, Maldives",
    "latitude": 5.10323036500878,
    "longitude": 73.07082325253708,
    "country": "Unknown",
    "cables": [],
    "cable_count": 0,
    "url": "",
    "feature_id": ""
  },
  {
    "landing_point_id": "dhangethi-maldives",
    "name": "Dhangethi, Maldives",
    "latitude": 3.608093477293043,
    "longitude": 72.95558895917019,
    "country": "Unknown",
    "cables": [],
    "cable_count": 0,
    "url": "",
    "feature_id": ""
  },
  {
    "landing_point_id": "gan-maldives",
    "name": "Gan, Maldives",
    "latitude": 1.918411782935871,
    "longitude": 73.54465104187312,
    "country": "Unknown",
    "cables": [],
    "cable_count": 0,
    "url": "",
    "feature_id": ""
  },
  {
    "landing_point_id": "gahdhoo-maldives",
    "name": "Gahdhoo, Maldives",
    "latitude": 0.288802003782011,
    "longitude": 73.45549094878496,
    "country": "Unknown",
    "cables": [],
    "cable_count": 0,
    "url": "",
    "feature_id": ""
  },
  {
    "landing_point_id": "diego-garcia-british-indian-ocean-territory",
    "name": "Diego Garcia, British Indian Ocean Territory",
    "latitude": -7.333330000000503,
    "longitude": 72.416672,
    "country": "Unknown",
    "cables": [],
    "cable_count": 0,
    "url": "",
    "feature_id": ""
  },
  {
    "landing_point_id": "boat-harbour-tas-australia",
    "name": "Boat Harbour, TAS, Australia",
    "latitude": -40.95086828582336,
    "longitude": 145.62379919907835,
    "country": "Unknown",
    "cables": [],
    "cable_count": 0,
    "url": "",
    "feature_id": ""
  },
  {
    "landing_point_id": "puerto-chacabuco-chile",
    "name": "Puerto Chacabuco, Chile",
    "latitude": -45.45830050296172,
    "longitude": -72.805098798216,
    "country": "Unknown",
    "cables": [],
    "cable_count": 0,
    "url": "",
    "feature_id": ""
  },
  {
    "landing_point_id": "beculuk-indonesia",
    "name": "Beculuk, Indonesia",
    "latitude": -8.615634129813643,
    "longitude": 114.09706372041353,
    "country": "Unknown",
    "cables": [],
    "cable_count": 0,
    "url": "",
    "feature_id": ""
  },
  {
    "landing_point_id": "toweli-indonesia",
    "name": "Toweli, Indonesia",
    "latitude": -1.142467701149998,
    "longitude": 119.38836856575348,
    "country": "Unknown",
    "cables": [],
    "cable_count": 0,
    "url": "",
    "feature_id": ""
  },
  {
    "landing_point_id": "sangata-indonesia",
    "name": "Sangata, Indonesia",
    "latitude": 0.326887363868111,
    "longitude": 117.55096752363566,
    "country": "Unknown",
    "cables": [],
    "cable_count": 0,
    "url": "",
    "feature_id": ""
  },
  {
    "landing_point_id": "pankalan-indonesia",
    "name": "Pankalan, Indonesia",
    "latitude": -2.849667399839222,
    "longitude": 111.75292475602346,
    "country": "Unknown",
    "cables": [],
    "cable_count": 0,
    "url": "",
    "feature_id": ""
  },
  {
    "landing_point_id": "ketapang-indonesia",
    "name": "Ketapang, Indonesia",
    "latitude": -1.859123326919139,
    "longitude": 109.97187133023849,
    "country": "Unknown",
    "cables": [],
    "cable_count": 0,
    "url": "",
    "feature_id": ""
  },
  {
    "landing_point_id": "banjarmasin-indonesia",
    "name": "Banjarmasin, Indonesia",
    "latitude": -3.327961488455888,
    "longitude": 114.60399695504718,
    "country": "Unknown",
    "cables": [],
    "cable_count": 0,
    "url": "",
    "feature_id": ""
  },
  {
    "landing_point_id": "pontianak-indonesia",
    "name": "Pontianak, Indonesia",
    "latitude": -0.02740748572126,
    "longitude": 109.33564131219983,
    "country": "Unknown",
    "cables": [],
    "cable_count": 0,
    "url": "",
    "feature_id": ""
  },
  {
    "landing_point_id": "klagshamn-sweden",
    "name": "Klagshamn, Sweden",
    "latitude": 55.53329310071712,
    "longitude": 12.916666647556017,
    "country": "Unknown",
    "cables": [],
    "cable_count": 0,
    "url": "",
    "feature_id": ""
  },
  {
    "landing_point_id": "brondby-denmark",
    "name": "Brondby, Denmark",
    "latitude": 55.64724561414846,
    "longitude": 12.41490919050584,
    "country": "Unknown",
    "cables": [],
    "cable_count": 0,
    "url": "",
    "feature_id": ""
  },
  {
    "landing_point_id": "nybor-denmark",
    "name": "Nybor, Denmark",
    "latitude": 55.324102015186114,
    "longitude": 10.799480647390464,
    "country": "Unknown",
    "cables": [],
    "cable_count": 0,
    "url": "",
    "feature_id": ""
  },
  {
    "landing_point_id": "korsor-denmark",
    "name": "Korsor, Denmark",
    "latitude": 55.32575488731598,
    "longitude": 11.149382743266532,
    "country": "Unknown",
    "cables": [],
    "cable_count": 0,
    "url": "",
    "feature_id": ""
  },
  {
    "landing_point_id": "rostock-germany",
    "name": "Rostock, Germany",
    "latitude": 54.078893478280825,
    "longitude": 12.13238985939624,
    "country": "Unknown",
    "cables": [],
    "cable_count": 0,
    "url": "",
    "feature_id": ""
  },
  {
    "landing_point_id": "markgrafenheide-germany",
    "name": "Markgrafenheide, Germany",
    "latitude": 54.19140540038316,
    "longitude": 12.149479691038506,
    "country": "Unknown",
    "cables": [],
    "cable_count": 0,
    "url": "",
    "feature_id": ""
  },
  {
    "landing_point_id": "osterby-denmark",
    "name": "Osterby, Denmark",
    "latitude": 57.31345558303452,
    "longitude": 11.199285051665399,
    "country": "Unknown",
    "cables": [],
    "cable_count": 0,
    "url": "",
    "feature_id": ""
  },
  {
    "landing_point_id": "kristinelund-sweden",
    "name": "Kristinelund, Sweden",
    "latitude": 56.134734209506526,
    "longitude": 12.588639536183623,
    "country": "Unknown",
    "cables": [],
    "cable_count": 0,
    "url": "",
    "feature_id": ""
  },
  {
    "landing_point_id": "tinian-northern-mariana-islands",
    "name": "Tinian, Northern Mariana Islands",
    "latitude": 15.011127130087093,
    "longitude": 145.63747106439294,
    "country": "Unknown",
    "cables": [],
    "cable_count": 0,
    "url": "",
    "feature_id": ""
  },
  {
    "landing_point_id": "saipan-northern-mariana-islands",
    "name": "Saipan, Northern Mariana Islands",
    "latitude": 15.1777319139343,
    "longitude": 145.7509475465053,
    "country": "Unknown",
    "cables": [],
    "cable_count": 0,
    "url": "",
    "feature_id": ""
  },
  {
    "landing_point_id": "rota-northern-mariana-islands",
    "name": "Rota, Northern Mariana Islands",
    "latitude": 14.151844706294286,
    "longitude": 145.21247136546685,
    "country": "Unknown",
    "cables": [],
    "cable_count": 0,
    "url": "",
    "feature_id": ""
  },
  {
    "landing_point_id": "vila-olga-virgin-islands-u-s-",
    "name": "Vila Olga, Virgin Islands (U.S.)",
    "latitude": 18.335728451477152,
    "longitude": -64.94802428611733,
    "country": "Unknown",
    "cables": [],
    "cable_count": 0,
    "url": "",
    "feature_id": ""
  },
  {
    "landing_point_id": "banana-bay-virgin-islands-u-s-",
    "name": "Banana Bay, Virgin Islands (U.S.)",
    "latitude": 18.328219740149585,
    "longitude": -64.94377624225066,
    "country": "Unknown",
    "cables": [],
    "cable_count": 0,
    "url": "",
    "feature_id": ""
  },
  {
    "landing_point_id": "flamingo-bay-virgin-islands-u-s-",
    "name": "Flamingo Bay, Virgin Islands (U.S.)",
    "latitude": 18.312830498451948,
    "longitude": -64.95778990419826,
    "country": "Unknown",
    "cables": [],
    "cable_count": 0,
    "url": "",
    "feature_id": ""
  },
  {
    "landing_point_id": "balboa-panama",
    "name": "Balboa, Panama",
    "latitude": 8.950027090049982,
    "longitude": -79.56667848090554,
    "country": "Unknown",
    "cables": [],
    "cable_count": 0,
    "url": "",
    "feature_id": ""
  },
  {
    "landing_point_id": "manta-ecuador",
    "name": "Manta, Ecuador",
    "latitude": -0.950019548909037,
    "longitude": -80.71618938533148,
    "country": "Unknown",
    "cables": [],
    "cable_count": 0,
    "url": "",
    "feature_id": ""
  },
  {
    "landing_point_id": "hudishibana-aruba",
    "name": "Hudishibana, Aruba",
    "latitude": 12.616634445885316,
    "longitude": -70.04997379684741,
    "country": "Unknown",
    "cables": [],
    "cable_count": 0,
    "url": "",
    "feature_id": ""
  },
  {
    "landing_point_id": "tyra-denmark",
    "name": "Tyra, Denmark",
    "latitude": 55.71560692113311,
    "longitude": 4.748508371456093,
    "country": "Unknown",
    "cables": [],
    "cable_count": 0,
    "url": "",
    "feature_id": ""
  },
  {
    "landing_point_id": "valdemar-denmark",
    "name": "Valdemar, Denmark",
    "latitude": 55.80407237566748,
    "longitude": 4.564328814430503,
    "country": "Unknown",
    "cables": [],
    "cable_count": 0,
    "url": "",
    "feature_id": ""
  },
  {
    "landing_point_id": "south-arne-denmark",
    "name": "South Arne, Denmark",
    "latitude": 56.07828845791397,
    "longitude": 4.228391552411684,
    "country": "Unknown",
    "cables": [],
    "cable_count": 0,
    "url": "",
    "feature_id": ""
  },
  {
    "landing_point_id": "ajaccio-france",
    "name": "Ajaccio, France",
    "latitude": 41.91932911005837,
    "longitude": 8.738642263557752,
    "country": "Unknown",
    "cables": [],
    "cable_count": 0,
    "url": "",
    "feature_id": ""
  },
  {
    "landing_point_id": "la-seyne-france",
    "name": "La Seyne, France",
    "latitude": 43.1029080448373,
    "longitude": 5.878097414994473,
    "country": "Unknown",
    "cables": [],
    "cable_count": 0,
    "url": "",
    "feature_id": ""
  },
  {
    "landing_point_id": "lle-rousse-france",
    "name": "L\u2019\u00cele-Rousse, France",
    "latitude": 42.6365095071255,
    "longitude": 8.937079622982862,
    "country": "Unknown",
    "cables": [],
    "cable_count": 0,
    "url": "",
    "feature_id": ""
  },
  {
    "landing_point_id": "cannes-france",
    "name": "Cannes, France",
    "latitude": 43.552927166028965,
    "longitude": 7.01735442043418,
    "country": "Unknown",
    "cables": [],
    "cable_count": 0,
    "url": "",
    "feature_id": ""
  },
  {
    "landing_point_id": "alsgarde-denmark",
    "name": "Alsgarde, Denmark",
    "latitude": 56.074882184341305,
    "longitude": 12.536881760350429,
    "country": "Unknown",
    "cables": [],
    "cable_count": 0,
    "url": "",
    "feature_id": ""
  },
  {
    "landing_point_id": "kristiansand-norway",
    "name": "Kristiansand, Norway",
    "latitude": 58.15095596477219,
    "longitude": 7.996259976968266,
    "country": "Unknown",
    "cables": [],
    "cable_count": 0,
    "url": "",
    "feature_id": ""
  },
  {
    "landing_point_id": "monte-carlo-monaco",
    "name": "Monte Carlo, Monaco",
    "latitude": 43.73973086446908,
    "longitude": 7.42721741133341,
    "country": "Unknown",
    "cables": [],
    "cable_count": 0,
    "url": "",
    "feature_id": ""
  },
  {
    "landing_point_id": "otranto-italy",
    "name": "Otranto, Italy",
    "latitude": 40.14805341338409,
    "longitude": 18.48570567114653,
    "country": "Unknown",
    "cables": [],
    "cable_count": 0,
    "url": "",
    "feature_id": ""
  },
  {
    "landing_point_id": "umag-croatia",
    "name": "Umag, Croatia",
    "latitude": 45.43310919075176,
    "longitude": 13.520181845020224,
    "country": "Unknown",
    "cables": [],
    "cable_count": 0,
    "url": "",
    "feature_id": ""
  },
  {
    "landing_point_id": "mestre-italy",
    "name": "Mestre, Italy",
    "latitude": 45.49587287439114,
    "longitude": 12.244108530252593,
    "country": "Unknown",
    "cables": [],
    "cable_count": 0,
    "url": "",
    "feature_id": ""
  },
  {
    "landing_point_id": "vaasa-finland",
    "name": "Vaasa, Finland",
    "latitude": 63.09519496029314,
    "longitude": 21.6163675158564,
    "country": "Unknown",
    "cables": [],
    "cable_count": 0,
    "url": "",
    "feature_id": ""
  },
  {
    "landing_point_id": "ume-sweden",
    "name": "Ume\u00e5, Sweden",
    "latitude": 63.82586986108827,
    "longitude": 20.262950505879612,
    "country": "Unknown",
    "cables": [],
    "cable_count": 0,
    "url": "",
    "feature_id": ""
  },
  {
    "landing_point_id": "nynashamn-sweden",
    "name": "Nynashamn, Sweden",
    "latitude": 58.902924681852696,
    "longitude": 17.94654589684356,
    "country": "Unknown",
    "cables": [],
    "cable_count": 0,
    "url": "",
    "feature_id": ""
  },
  {
    "landing_point_id": "meremisa-estonia",
    "name": "Merem\u00f6isa, Estonia",
    "latitude": 59.40084650364711,
    "longitude": 24.276619537558968,
    "country": "Unknown",
    "cables": [],
    "cable_count": 0,
    "url": "",
    "feature_id": ""
  },
  {
    "landing_point_id": "songkhla-thailand",
    "name": "Songkhla, Thailand",
    "latitude": 7.198819999999446,
    "longitude": 100.5951000000003,
    "country": "Unknown",
    "cables": [],
    "cable_count": 0,
    "url": "",
    "feature_id": ""
  },
  {
    "landing_point_id": "hithadhoo-maldives",
    "name": "Hithadhoo, Maldives",
    "latitude": -0.606021265123826,
    "longitude": 73.08918261453131,
    "country": "Unknown",
    "cables": [],
    "cable_count": 0,
    "url": "",
    "feature_id": ""
  },
  {
    "landing_point_id": "fuvahmulah-maldives",
    "name": "Fuvahmulah, Maldives",
    "latitude": -0.298304384685104,
    "longitude": 73.42687768780485,
    "country": "Unknown",
    "cables": [],
    "cable_count": 0,
    "url": "",
    "feature_id": ""
  },
  {
    "landing_point_id": "port-gentil-gabon",
    "name": "Port Gentil, Gabon",
    "latitude": -0.721040306475029,
    "longitude": 8.781610983118252,
    "country": "Unknown",
    "cables": [],
    "cable_count": 0,
    "url": "",
    "feature_id": ""
  },
  {
    "landing_point_id": "lusk-ireland",
    "name": "Lusk, Ireland",
    "latitude": 53.52625445974578,
    "longitude": -6.165888193558025,
    "country": "Unknown",
    "cables": [],
    "cable_count": 0,
    "url": "",
    "feature_id": ""
  },
  {
    "landing_point_id": "tobruk-libya",
    "name": "Tobruk, Libya",
    "latitude": 32.079604155442446,
    "longitude": 23.960311167883617,
    "country": "Unknown",
    "cables": [],
    "cable_count": 0,
    "url": "",
    "feature_id": ""
  },
  {
    "landing_point_id": "al-bayda-libya",
    "name": "Al Bayda, Libya",
    "latitude": 32.88172722141822,
    "longitude": 21.74166039584776,
    "country": "Unknown",
    "cables": [],
    "cable_count": 0,
    "url": "",
    "feature_id": ""
  },
  {
    "landing_point_id": "tolmeta-libya",
    "name": "Tolmeta, Libya",
    "latitude": 32.71673198238239,
    "longitude": 20.949961737944495,
    "country": "Unknown",
    "cables": [],
    "cable_count": 0,
    "url": "",
    "feature_id": ""
  },
  {
    "landing_point_id": "benghazi-libya",
    "name": "Benghazi, Libya",
    "latitude": 32.11658375707056,
    "longitude": 20.066759238613432,
    "country": "Unknown",
    "cables": [],
    "cable_count": 0,
    "url": "",
    "feature_id": ""
  },
  {
    "landing_point_id": "brega-libya",
    "name": "Brega, Libya",
    "latitude": 30.378108493012235,
    "longitude": 19.576525210899817,
    "country": "Unknown",
    "cables": [],
    "cable_count": 0,
    "url": "",
    "feature_id": ""
  },
  {
    "landing_point_id": "ras-lanuf-libya",
    "name": "Ras Lanuf, Libya",
    "latitude": 30.586737502695293,
    "longitude": 18.41187759844718,
    "country": "Unknown",
    "cables": [],
    "cable_count": 0,
    "url": "",
    "feature_id": ""
  },
  {
    "landing_point_id": "sirte-libya",
    "name": "Sirte, Libya",
    "latitude": 31.205251640496304,
    "longitude": 16.588343734005548,
    "country": "Unknown",
    "cables": [],
    "cable_count": 0,
    "url": "",
    "feature_id": ""
  },
  {
    "landing_point_id": "misuratah-libya",
    "name": "Misuratah, Libya",
    "latitude": 32.37427884369104,
    "longitude": 15.094790104552972,
    "country": "Unknown",
    "cables": [],
    "cable_count": 0,
    "url": "",
    "feature_id": ""
  },
  {
    "landing_point_id": "al-khums-libya",
    "name": "Al Khums, Libya",
    "latitude": 32.64966152384897,
    "longitude": 14.26441959904531,
    "country": "Unknown",
    "cables": [],
    "cable_count": 0,
    "url": "",
    "feature_id": ""
  },
  {
    "landing_point_id": "zawia-libya",
    "name": "Zawia, Libya",
    "latitude": 32.774720416295295,
    "longitude": 12.529752859149395,
    "country": "Unknown",
    "cables": [],
    "cable_count": 0,
    "url": "",
    "feature_id": ""
  },
  {
    "landing_point_id": "zuwara-libya",
    "name": "Zuwara, Libya",
    "latitude": 32.93337907602355,
    "longitude": 12.083366456623823,
    "country": "Unknown",
    "cables": [],
    "cable_count": 0,
    "url": "",
    "feature_id": ""
  },
  {
    "landing_point_id": "hermosa-beach-ca-united-states",
    "name": "Hermosa Beach, CA, United States",
    "latitude": 33.862232632157735,
    "longitude": -118.39954892055475,
    "country": "Unknown",
    "cables": [],
    "cable_count": 0,
    "url": "",
    "feature_id": ""
  },
  {
    "landing_point_id": "sandy-point-vic-australia",
    "name": "Sandy Point, VIC, Australia",
    "latitude": -38.82018266620627,
    "longitude": 146.11969728527944,
    "country": "Unknown",
    "cables": [],
    "cable_count": 0,
    "url": "",
    "feature_id": ""
  },
  {
    "landing_point_id": "four-mile-bluff-tas-australia",
    "name": "Four Mile Bluff, TAS, Australia",
    "latitude": -41.03327707528322,
    "longitude": 146.85016551780996,
    "country": "Unknown",
    "cables": [],
    "cable_count": 0,
    "url": "",
    "feature_id": ""
  },
  {
    "landing_point_id": "mcgaurans-beach-vic-australia",
    "name": "McGaurans Beach, VIC, Australia",
    "latitude": -38.44361560267599,
    "longitude": 147.07125911118302,
    "country": "Unknown",
    "cables": [],
    "cable_count": 0,
    "url": "",
    "feature_id": ""
  },
  {
    "landing_point_id": "stanley-tas-australia",
    "name": "Stanley, TAS, Australia",
    "latitude": -40.760375144220674,
    "longitude": 145.29411193263084,
    "country": "Unknown",
    "cables": [],
    "cable_count": 0,
    "url": "",
    "feature_id": ""
  },
  {
    "landing_point_id": "inverloch-vic-australia",
    "name": "Inverloch, VIC, Australia",
    "latitude": -38.63345276915476,
    "longitude": 145.72946318672496,
    "country": "Unknown",
    "cables": [],
    "cable_count": 0,
    "url": "",
    "feature_id": ""
  },
  {
    "landing_point_id": "quellon-chile",
    "name": "Quellon, Chile",
    "latitude": -43.117473610870405,
    "longitude": -73.47946355486467,
    "country": "Unknown",
    "cables": [],
    "cable_count": 0,
    "url": "",
    "feature_id": ""
  },
  {
    "landing_point_id": "gav-spain",
    "name": "Gav\u00e1, Spain",
    "latitude": 41.304002941820244,
    "longitude": 2.001342348824283,
    "country": "Unknown",
    "cables": [],
    "cable_count": 0,
    "url": "",
    "feature_id": ""
  },
  {
    "landing_point_id": "fomboni-moheli-comoros",
    "name": "Fomboni Moheli, Comoros",
    "latitude": -12.288236282174532,
    "longitude": 43.73959403105522,
    "country": "Unknown",
    "cables": [],
    "cable_count": 0,
    "url": "",
    "feature_id": ""
  },
  {
    "landing_point_id": "mutsamudu-comoros",
    "name": "Mutsamudu, Comoros",
    "latitude": -12.16665664973713,
    "longitude": 44.400042781936996,
    "country": "Unknown",
    "cables": [],
    "cable_count": 0,
    "url": "",
    "feature_id": ""
  },
  {
    "landing_point_id": "chindini-comoros",
    "name": "Chindini, Comoros",
    "latitude": -11.923498177297583,
    "longitude": 43.48910592725337,
    "country": "Unknown",
    "cables": [],
    "cable_count": 0,
    "url": "",
    "feature_id": ""
  },
  {
    "landing_point_id": "mouly-new-caledonia",
    "name": "Mouly, New Caledonia",
    "latitude": -20.70593760646555,
    "longitude": 166.48901879296093,
    "country": "Unknown",
    "cables": [],
    "cable_count": 0,
    "url": "",
    "feature_id": ""
  },
  {
    "landing_point_id": "xepenehe-new-caledonia",
    "name": "Xepenehe, New Caledonia",
    "latitude": -20.7809160007802,
    "longitude": 167.1513230112785,
    "country": "Unknown",
    "cables": [],
    "cable_count": 0,
    "url": "",
    "feature_id": ""
  },
  {
    "landing_point_id": "poindimie-new-caledonia",
    "name": "Poindimie, New Caledonia",
    "latitude": -20.945878679076127,
    "longitude": 165.34155866833254,
    "country": "Unknown",
    "cables": [],
    "cable_count": 0,
    "url": "",
    "feature_id": ""
  },
  {
    "landing_point_id": "angra-do-heroismo-portugal",
    "name": "Angra do Heroismo, Portugal",
    "latitude": 38.65852273411055,
    "longitude": -27.215824453460687,
    "country": "Unknown",
    "cables": [],
    "cable_count": 0,
    "url": "",
    "feature_id": ""
  },
  {
    "landing_point_id": "vila-do-porto-portugal",
    "name": "Vila do Porto, Portugal",
    "latitude": 36.95676381760329,
    "longitude": -25.14126537622283,
    "country": "Unknown",
    "cables": [],
    "cable_count": 0,
    "url": "",
    "feature_id": ""
  },
  {
    "landing_point_id": "sao-mateus-portugal",
    "name": "Sao Mateus, Portugal",
    "latitude": 38.43229047782683,
    "longitude": -28.46123372745104,
    "country": "Unknown",
    "cables": [],
    "cable_count": 0,
    "url": "",
    "feature_id": ""
  },
  {
    "landing_point_id": "velas-portugal",
    "name": "Velas, Portugal",
    "latitude": 38.683845455403926,
    "longitude": -28.2131870281707,
    "country": "Unknown",
    "cables": [],
    "cable_count": 0,
    "url": "",
    "feature_id": ""
  },
  {
    "landing_point_id": "porto-santo-portugal",
    "name": "Porto Santo, Portugal",
    "latitude": 33.047316301636776,
    "longitude": -16.347668090064676,
    "country": "Unknown",
    "cables": [],
    "cable_count": 0,
    "url": "",
    "feature_id": ""
  },
  {
    "landing_point_id": "funchal-portugal",
    "name": "Funchal, Portugal",
    "latitude": 32.64686582848514,
    "longitude": -16.908946989325337,
    "country": "Unknown",
    "cables": [],
    "cable_count": 0,
    "url": "",
    "feature_id": ""
  },
  {
    "landing_point_id": "toco-trinidad-and-tobago",
    "name": "Toco, Trinidad and Tobago",
    "latitude": 10.831137615524929,
    "longitude": -60.94968727482579,
    "country": "Unknown",
    "cables": [],
    "cable_count": 0,
    "url": "",
    "feature_id": ""
  },
  {
    "landing_point_id": "pigeon-point-trinidad-and-tobago",
    "name": "Pigeon Point, Trinidad and Tobago",
    "latitude": 11.16540972374498,
    "longitude": -60.84031235230797,
    "country": "Unknown",
    "cables": [],
    "cable_count": 0,
    "url": "",
    "feature_id": ""
  },
  {
    "landing_point_id": "kaliko-haiti",
    "name": "Kaliko, Haiti",
    "latitude": 18.86458746066303,
    "longitude": -72.60871221858814,
    "country": "Unknown",
    "cables": [],
    "cable_count": 0,
    "url": "",
    "feature_id": ""
  },
  {
    "landing_point_id": "huahine-french-polynesia",
    "name": "Huahine, French Polynesia",
    "latitude": -16.730055979033075,
    "longitude": -151.0000690389311,
    "country": "Unknown",
    "cables": [],
    "cable_count": 0,
    "url": "",
    "feature_id": ""
  },
  {
    "landing_point_id": "moorea-french-polynesia",
    "name": "Moorea, French Polynesia",
    "latitude": -17.538774974102118,
    "longitude": -149.82956205562922,
    "country": "Unknown",
    "cables": [],
    "cable_count": 0,
    "url": "",
    "feature_id": ""
  },
  {
    "landing_point_id": "uturoa-french-polynesia",
    "name": "Uturoa, French Polynesia",
    "latitude": -16.73090937041819,
    "longitude": -151.4430374751281,
    "country": "Unknown",
    "cables": [],
    "cable_count": 0,
    "url": "",
    "feature_id": ""
  },
  {
    "landing_point_id": "vaitape-french-polynesia",
    "name": "Vaitape, French Polynesia",
    "latitude": -16.506324613958466,
    "longitude": -151.7495313986299,
    "country": "Unknown",
    "cables": [],
    "cable_count": 0,
    "url": "",
    "feature_id": ""
  },
  {
    "landing_point_id": "sumbawa-besar-indonesia",
    "name": "Sumbawa Besar, Indonesia",
    "latitude": -8.84115000000092,
    "longitude": 118.08221700000053,
    "country": "Unknown",
    "cables": [],
    "cable_count": 0,
    "url": "",
    "feature_id": ""
  },
  {
    "landing_point_id": "hitiaa-french-polynesia",
    "name": "Hitia'a, French Polynesia",
    "latitude": -17.723318964508866,
    "longitude": -149.3081207746325,
    "country": "Unknown",
    "cables": [],
    "cable_count": 0,
    "url": "",
    "feature_id": ""
  },
  {
    "landing_point_id": "kerch-ukraine",
    "name": "Kerch, Ukraine",
    "latitude": 45.35698172208115,
    "longitude": 36.477392144417024,
    "country": "Unknown",
    "cables": [],
    "cable_count": 0,
    "url": "",
    "feature_id": ""
  },
  {
    "landing_point_id": "domburg-netherlands",
    "name": "Domburg, Netherlands",
    "latitude": 51.56395317878603,
    "longitude": 3.496165508627551,
    "country": "Unknown",
    "cables": [],
    "cable_count": 0,
    "url": "",
    "feature_id": ""
  },
  {
    "landing_point_id": "aldeburgh-united-kingdom",
    "name": "Aldeburgh, United Kingdom",
    "latitude": 52.1578426448517,
    "longitude": 1.590600452297692,
    "country": "Unknown",
    "cables": [],
    "cable_count": 0,
    "url": "",
    "feature_id": ""
  },
  {
    "landing_point_id": "port-hedland-wa-australia",
    "name": "Port Hedland, WA, Australia",
    "latitude": -20.31345781610387,
    "longitude": 118.57723632786723,
    "country": "Unknown",
    "cables": [],
    "cable_count": 0,
    "url": "",
    "feature_id": ""
  },
  {
    "landing_point_id": "darwin-nt-australia",
    "name": "Darwin, NT, Australia",
    "latitude": -12.467490679762426,
    "longitude": 130.8431456073319,
    "country": "Unknown",
    "cables": [],
    "cable_count": 0,
    "url": "",
    "feature_id": ""
  },
  {
    "landing_point_id": "igiugig-ak-united-states",
    "name": "Igiugig, AK, United States",
    "latitude": 59.327800128586105,
    "longitude": -155.8947433058731,
    "country": "Unknown",
    "cables": [],
    "cable_count": 0,
    "url": "",
    "feature_id": ""
  },
  {
    "landing_point_id": "port-alsworth-ak-united-states",
    "name": "Port Alsworth, AK, United States",
    "latitude": 60.200371500530665,
    "longitude": -154.3369319094411,
    "country": "Unknown",
    "cables": [],
    "cable_count": 0,
    "url": "",
    "feature_id": ""
  },
  {
    "landing_point_id": "fish-camp-ak-united-states",
    "name": "Fish Camp, AK, United States",
    "latitude": 59.94919988638963,
    "longitude": -154.85885536783067,
    "country": "Unknown",
    "cables": [],
    "cable_count": 0,
    "url": "",
    "feature_id": ""
  },
  {
    "landing_point_id": "nondalton-ak-united-states",
    "name": "Nondalton, AK, United States",
    "latitude": 59.972649771731774,
    "longitude": -154.84772256321745,
    "country": "Unknown",
    "cables": [],
    "cable_count": 0,
    "url": "",
    "feature_id": ""
  },
  {
    "landing_point_id": "newhalen-ak-united-states",
    "name": "Newhalen, AK, United States",
    "latitude": 59.7181450195821,
    "longitude": -154.899773307594,
    "country": "Unknown",
    "cables": [],
    "cable_count": 0,
    "url": "",
    "feature_id": ""
  },
  {
    "landing_point_id": "kokhanok-ak-united-states",
    "name": "Kokhanok, AK, United States",
    "latitude": 59.44215809995201,
    "longitude": -154.75275192737027,
    "country": "Unknown",
    "cables": [],
    "cable_count": 0,
    "url": "",
    "feature_id": ""
  },
  {
    "landing_point_id": "pile-bay-ak-united-states",
    "name": "Pile Bay, AK, United States",
    "latitude": 59.776054476860836,
    "longitude": -153.88048692029113,
    "country": "Unknown",
    "cables": [],
    "cable_count": 0,
    "url": "",
    "feature_id": ""
  },
  {
    "landing_point_id": "illiamna-ak-united-states",
    "name": "Illiamna, AK, United States",
    "latitude": 59.754765229743505,
    "longitude": -154.90612095934728,
    "country": "Unknown",
    "cables": [],
    "cable_count": 0,
    "url": "",
    "feature_id": ""
  },
  {
    "landing_point_id": "pedro-bay-ak-united-states",
    "name": "Pedro Bay, AK, United States",
    "latitude": 59.7872115404838,
    "longitude": -154.10612152607442,
    "country": "Unknown",
    "cables": [],
    "cable_count": 0,
    "url": "",
    "feature_id": ""
  },
  {
    "landing_point_id": "williamsport-ak-united-states",
    "name": "Williamsport, AK, United States",
    "latitude": 59.682402835634406,
    "longitude": -153.63214725246726,
    "country": "Unknown",
    "cables": [],
    "cable_count": 0,
    "url": "",
    "feature_id": ""
  },
  {
    "landing_point_id": "mchugh-point-ak-united-states",
    "name": "McHugh Point, AK, United States",
    "latitude": 61.01571463051166,
    "longitude": -149.73219884335225,
    "country": "Unknown",
    "cables": [],
    "cable_count": 0,
    "url": "",
    "feature_id": ""
  },
  {
    "landing_point_id": "portage-ak-united-states",
    "name": "Portage, AK, United States",
    "latitude": 60.82828925189919,
    "longitude": -148.98981655676278,
    "country": "Unknown",
    "cables": [],
    "cable_count": 0,
    "url": "",
    "feature_id": ""
  },
  {
    "landing_point_id": "matara-sri-lanka",
    "name": "Matara, Sri Lanka",
    "latitude": 5.940833037393244,
    "longitude": 80.53986093015084,
    "country": "Unknown",
    "cables": [],
    "cable_count": 0,
    "url": "",
    "feature_id": ""
  },
  {
    "landing_point_id": "kuakata-bangladesh",
    "name": "Kuakata, Bangladesh",
    "latitude": 21.816735551700102,
    "longitude": 90.11661195839058,
    "country": "Unknown",
    "cables": [],
    "cable_count": 0,
    "url": "",
    "feature_id": ""
  },
  {
    "landing_point_id": "ngwe-saung-myanmar",
    "name": "Ngwe Saung, Myanmar",
    "latitude": 16.858028367792194,
    "longitude": 94.39121830521923,
    "country": "Unknown",
    "cables": [],
    "cable_count": 0,
    "url": "",
    "feature_id": ""
  },
  {
    "landing_point_id": "yanbu-saudi-arabia",
    "name": "Yanbu, Saudi Arabia",
    "latitude": 24.070555564820936,
    "longitude": 38.10698083375123,
    "country": "Unknown",
    "cables": [],
    "cable_count": 0,
    "url": "",
    "feature_id": ""
  },
  {
    "landing_point_id": "toulon-france",
    "name": "Toulon, France",
    "latitude": 43.12529261338072,
    "longitude": 5.930343471732967,
    "country": "Unknown",
    "cables": [],
    "cable_count": 0,
    "url": "",
    "feature_id": ""
  },
  {
    "landing_point_id": "buenaventura-colombia",
    "name": "Buenaventura, Colombia",
    "latitude": 3.883674880769303,
    "longitude": -77.0403008760841,
    "country": "Unknown",
    "cables": [],
    "cable_count": 0,
    "url": "",
    "feature_id": ""
  },
  {
    "landing_point_id": "bima-indonesia",
    "name": "Bima, Indonesia",
    "latitude": -8.464266,
    "longitude": 118.74490299999954,
    "country": "Unknown",
    "cables": [],
    "cable_count": 0,
    "url": "",
    "feature_id": ""
  },
  {
    "landing_point_id": "saraemee-indonesia",
    "name": "Saraemee, Indonesia",
    "latitude": -8.796931179918277,
    "longitude": 118.71180654503641,
    "country": "Unknown",
    "cables": [],
    "cable_count": 0,
    "url": "",
    "feature_id": ""
  },
  {
    "landing_point_id": "waingapu-indonesia",
    "name": "Waingapu, Indonesia",
    "latitude": -9.64615484323023,
    "longitude": 120.25301639072892,
    "country": "Unknown",
    "cables": [],
    "cable_count": 0,
    "url": "",
    "feature_id": ""
  },
  {
    "landing_point_id": "kupang-indonesia",
    "name": "Kupang, Indonesia",
    "latitude": -10.183308656195656,
    "longitude": 123.5833851252144,
    "country": "Unknown",
    "cables": [],
    "cable_count": 0,
    "url": "",
    "feature_id": ""
  },
  {
    "landing_point_id": "taytay-philippines",
    "name": "Taytay, Philippines",
    "latitude": 10.819603438863586,
    "longitude": 119.50038020515338,
    "country": "Unknown",
    "cables": [],
    "cable_count": 0,
    "url": "",
    "feature_id": ""
  },
  {
    "landing_point_id": "san-jose-philippines",
    "name": "San Jose, Philippines",
    "latitude": 12.362623239786029,
    "longitude": 121.05008613857723,
    "country": "Unknown",
    "cables": [],
    "cable_count": 0,
    "url": "",
    "feature_id": ""
  },
  {
    "landing_point_id": "coron-philippines",
    "name": "Coron, Philippines",
    "latitude": 12.004960160699559,
    "longitude": 120.20067267780973,
    "country": "Unknown",
    "cables": [],
    "cable_count": 0,
    "url": "",
    "feature_id": ""
  },
  {
    "landing_point_id": "el-quawef-libya",
    "name": "El-Quawef, Libya",
    "latitude": 31.760813307797136,
    "longitude": 25.08736115072189,
    "country": "Unknown",
    "cables": [],
    "cable_count": 0,
    "url": "",
    "feature_id": ""
  },
  {
    "landing_point_id": "faial-portugal",
    "name": "Faial, Portugal",
    "latitude": 38.525099690783364,
    "longitude": -28.647561720454593,
    "country": "Unknown",
    "cables": [],
    "cable_count": 0,
    "url": "",
    "feature_id": ""
  },
  {
    "landing_point_id": "graciosa-portugal",
    "name": "Graciosa, Portugal",
    "latitude": 39.01102990331266,
    "longitude": -27.963480173814336,
    "country": "Unknown",
    "cables": [],
    "cable_count": 0,
    "url": "",
    "feature_id": ""
  },
  {
    "landing_point_id": "corvo-portugal",
    "name": "Corvo, Portugal",
    "latitude": 39.67193532519225,
    "longitude": -31.110548256901776,
    "country": "Unknown",
    "cables": [],
    "cable_count": 0,
    "url": "",
    "feature_id": ""
  },
  {
    "landing_point_id": "flores-portugal",
    "name": "Flores, Portugal",
    "latitude": 39.462211754202585,
    "longitude": -31.128516994172585,
    "country": "Unknown",
    "cables": [],
    "cable_count": 0,
    "url": "",
    "feature_id": ""
  },
  {
    "landing_point_id": "piedra-santa-spain",
    "name": "Piedra Santa, Spain",
    "latitude": 28.04062233001219,
    "longitude": -15.408801567666467,
    "country": "Unknown",
    "cables": [],
    "cable_count": 0,
    "url": "",
    "feature_id": ""
  },
  {
    "landing_point_id": "las-caletillas-spain",
    "name": "Las Caletillas, Spain",
    "latitude": 28.37727858251394,
    "longitude": -16.36236534527797,
    "country": "Unknown",
    "cables": [],
    "cable_count": 0,
    "url": "",
    "feature_id": ""
  },
  {
    "landing_point_id": "sihanoukville-cambodia",
    "name": "Sihanoukville, Cambodia",
    "latitude": 10.630005631197276,
    "longitude": 103.5066415352679,
    "country": "Unknown",
    "cables": [],
    "cable_count": 0,
    "url": "",
    "feature_id": ""
  },
  {
    "landing_point_id": "kralendijk-bonaire-netherlands",
    "name": "Kralendijk, Bonaire, Netherlands",
    "latitude": 12.150684714118114,
    "longitude": -68.27668403743753,
    "country": "Unknown",
    "cables": [],
    "cable_count": 0,
    "url": "",
    "feature_id": ""
  },
  {
    "landing_point_id": "north-salina-bonaire-sint-eustatius-and-saba",
    "name": "North Salina, Bonaire, Sint Eustatius and Saba",
    "latitude": 12.1638160000004,
    "longitude": -68.28414900000034,
    "country": "Unknown",
    "cables": [],
    "cable_count": 0,
    "url": "",
    "feature_id": ""
  },
  {
    "landing_point_id": "ratmalana-sri-lanka",
    "name": "Ratmalana, Sri Lanka",
    "latitude": 6.820387603783256,
    "longitude": 79.88927545353178,
    "country": "Unknown",
    "cables": [],
    "cable_count": 0,
    "url": "",
    "feature_id": ""
  },
  {
    "landing_point_id": "mataram-indonesia",
    "name": "Mataram, Indonesia",
    "latitude": -8.586389151919366,
    "longitude": 116.08153497084551,
    "country": "Unknown",
    "cables": [],
    "cable_count": 0,
    "url": "",
    "feature_id": ""
  },
  {
    "landing_point_id": "nasugbu-philippines",
    "name": "Nasugbu, Philippines",
    "latitude": 14.088187386038742,
    "longitude": 120.62301068928154,
    "country": "Unknown",
    "cables": [],
    "cable_count": 0,
    "url": "",
    "feature_id": ""
  },
  {
    "landing_point_id": "pinamalayan-philippines",
    "name": "Pinamalayan, Philippines",
    "latitude": 13.045778897500922,
    "longitude": 121.46453896997501,
    "country": "Unknown",
    "cables": [],
    "cable_count": 0,
    "url": "",
    "feature_id": ""
  },
  {
    "landing_point_id": "roxas-city-philippines",
    "name": "Roxas City, Philippines",
    "latitude": 11.583305826411662,
    "longitude": 122.74998727810134,
    "country": "Unknown",
    "cables": [],
    "cable_count": 0,
    "url": "",
    "feature_id": ""
  },
  {
    "landing_point_id": "masbate-city-philippines",
    "name": "Masbate City, Philippines",
    "latitude": 12.36672505260177,
    "longitude": 123.61668588287377,
    "country": "Unknown",
    "cables": [],
    "cable_count": 0,
    "url": "",
    "feature_id": ""
  },
  {
    "landing_point_id": "legazpi-city-philippines",
    "name": "Legazpi City, Philippines",
    "latitude": 13.139089344982024,
    "longitude": 123.74373657411985,
    "country": "Unknown",
    "cables": [],
    "cable_count": 0,
    "url": "",
    "feature_id": ""
  },
  {
    "landing_point_id": "calbayog-philippines",
    "name": "Calbayog, Philippines",
    "latitude": 12.069906190827878,
    "longitude": 124.60027893608729,
    "country": "Unknown",
    "cables": [],
    "cable_count": 0,
    "url": "",
    "feature_id": ""
  },
  {
    "landing_point_id": "ormoc-philippines",
    "name": "Ormoc, Philippines",
    "latitude": 11.006888634178475,
    "longitude": 124.61277892723209,
    "country": "Unknown",
    "cables": [],
    "cable_count": 0,
    "url": "",
    "feature_id": ""
  },
  {
    "landing_point_id": "cebu-philippines",
    "name": "Cebu, Philippines",
    "latitude": 10.310033388932034,
    "longitude": 123.89461537348717,
    "country": "Unknown",
    "cables": [],
    "cable_count": 0,
    "url": "",
    "feature_id": ""
  },
  {
    "landing_point_id": "cadiz-city-philippines",
    "name": "Cadiz City, Philippines",
    "latitude": 10.950026359206582,
    "longitude": 123.29998688847635,
    "country": "Unknown",
    "cables": [],
    "cable_count": 0,
    "url": "",
    "feature_id": ""
  },
  {
    "landing_point_id": "dumaguete-philippines",
    "name": "Dumaguete, Philippines",
    "latitude": 9.295611105669924,
    "longitude": 123.28143221412073,
    "country": "Unknown",
    "cables": [],
    "cable_count": 0,
    "url": "",
    "feature_id": ""
  },
  {
    "landing_point_id": "ozamiz-city-philippines",
    "name": "Ozamiz City, Philippines",
    "latitude": 8.15002871017614,
    "longitude": 123.84998649885156,
    "country": "Unknown",
    "cables": [],
    "cable_count": 0,
    "url": "",
    "feature_id": ""
  },
  {
    "landing_point_id": "cagayan-de-oro-philippines",
    "name": "Cagayan de Oro, Philippines",
    "latitude": 8.454228346754538,
    "longitude": 124.6319195386728,
    "country": "Unknown",
    "cables": [],
    "cable_count": 0,
    "url": "",
    "feature_id": ""
  },
  {
    "landing_point_id": "butuan-city-philippines",
    "name": "Butuan City, Philippines",
    "latitude": 8.947615403087521,
    "longitude": 125.54061030119786,
    "country": "Unknown",
    "cables": [],
    "cable_count": 0,
    "url": "",
    "feature_id": ""
  },
  {
    "landing_point_id": "san-jose-de-buenavista-philippines",
    "name": "San Jose de Buenavista, Philippines",
    "latitude": 10.748806024464415,
    "longitude": 121.94129644473541,
    "country": "Unknown",
    "cables": [],
    "cable_count": 0,
    "url": "",
    "feature_id": ""
  },
  {
    "landing_point_id": "santiago-de-cuba-cuba",
    "name": "Santiago de Cuba, Cuba",
    "latitude": 20.028793830551784,
    "longitude": -75.82897360919968,
    "country": "Unknown",
    "cables": [],
    "cable_count": 0,
    "url": "",
    "feature_id": ""
  },
  {
    "landing_point_id": "killala-ireland",
    "name": "Killala, Ireland",
    "latitude": 54.20682940735113,
    "longitude": -9.23219461510775,
    "country": "Unknown",
    "cables": [],
    "cable_count": 0,
    "url": "",
    "feature_id": ""
  },
  {
    "landing_point_id": "cork-ireland",
    "name": "Cork, Ireland",
    "latitude": 51.89833468681305,
    "longitude": -8.472771324965343,
    "country": "Unknown",
    "cables": [],
    "cable_count": 0,
    "url": "",
    "feature_id": ""
  },
  {
    "landing_point_id": "milton-nl-canada",
    "name": "Milton, NL, Canada",
    "latitude": 48.20761257904667,
    "longitude": -53.96023910121645,
    "country": "Unknown",
    "cables": [],
    "cable_count": 0,
    "url": "",
    "feature_id": ""
  },
  {
    "landing_point_id": "pacific-city-or-united-states",
    "name": "Pacific City, OR, United States",
    "latitude": 45.201924825052444,
    "longitude": -123.9626309171155,
    "country": "Unknown",
    "cables": [],
    "cable_count": 0,
    "url": "",
    "feature_id": ""
  },
  {
    "landing_point_id": "blackpool-sands-united-kingdom",
    "name": "Blackpool Sands, United Kingdom",
    "latitude": 50.31882973101125,
    "longitude": -3.610909534778925,
    "country": "Unknown",
    "cables": [],
    "cable_count": 0,
    "url": "",
    "feature_id": ""
  },
  {
    "landing_point_id": "labuan-bajo-indonesia",
    "name": "Labuan Bajo, Indonesia",
    "latitude": -8.475551000000419,
    "longitude": 119.90756399999964,
    "country": "Unknown",
    "cables": [],
    "cable_count": 0,
    "url": "",
    "feature_id": ""
  },
  {
    "landing_point_id": "sape-indonesia",
    "name": "Sape, Indonesia",
    "latitude": -8.505600000000262,
    "longitude": 118.97619999999958,
    "country": "Unknown",
    "cables": [],
    "cable_count": 0,
    "url": "",
    "feature_id": ""
  },
  {
    "landing_point_id": "ende-indonesia",
    "name": "Ende, Indonesia",
    "latitude": -8.845699000000248,
    "longitude": 121.64273999999965,
    "country": "Unknown",
    "cables": [],
    "cable_count": 0,
    "url": "",
    "feature_id": ""
  },
  {
    "landing_point_id": "lantau-island-china",
    "name": "Lantau Island, China",
    "latitude": 22.271491582355683,
    "longitude": 113.94833335702553,
    "country": "Unknown",
    "cables": [],
    "cable_count": 0,
    "url": "",
    "feature_id": ""
  },
  {
    "landing_point_id": "miura-japan",
    "name": "Miura, Japan",
    "latitude": 35.14403408076397,
    "longitude": 139.6206784517453,
    "country": "Unknown",
    "cables": [],
    "cable_count": 0,
    "url": "",
    "feature_id": ""
  },
  {
    "landing_point_id": "island-park-ny-united-states",
    "name": "Island Park, NY, United States",
    "latitude": 40.60030327678829,
    "longitude": -73.6559282736054,
    "country": "Unknown",
    "cables": [],
    "cable_count": 0,
    "url": "",
    "feature_id": ""
  },
  {
    "landing_point_id": "danang-vietnam",
    "name": "Danang, Vietnam",
    "latitude": 16.051559827539638,
    "longitude": 108.21474366875417,
    "country": "Unknown",
    "cables": [],
    "cable_count": 0,
    "url": "",
    "feature_id": ""
  },
  {
    "landing_point_id": "mersing-malaysia",
    "name": "Mersing, Malaysia",
    "latitude": 2.295511672819276,
    "longitude": 103.84990301084824,
    "country": "Unknown",
    "cables": [],
    "cable_count": 0,
    "url": "",
    "feature_id": ""
  },
  {
    "landing_point_id": "tuas-singapore",
    "name": "Tuas, Singapore",
    "latitude": 1.338192522185158,
    "longitude": 103.64707112328632,
    "country": "Unknown",
    "cables": [],
    "cable_count": 0,
    "url": "",
    "feature_id": ""
  },
  {
    "landing_point_id": "tuckerton-nj-united-states",
    "name": "Tuckerton, NJ, United States",
    "latitude": 39.60388495499803,
    "longitude": -74.33791021235805,
    "country": "Unknown",
    "cables": [],
    "cable_count": 0,
    "url": "",
    "feature_id": ""
  },
  {
    "landing_point_id": "st-davids-bermuda",
    "name": "St. David\u2019s, Bermuda",
    "latitude": 32.31223462116531,
    "longitude": -64.76950878757832,
    "country": "Unknown",
    "cables": [],
    "cable_count": 0,
    "url": "",
    "feature_id": ""
  },
  {
    "landing_point_id": "boca-raton-fl-united-states",
    "name": "Boca Raton, FL, United States",
    "latitude": 26.350323169523403,
    "longitude": -80.08894373592818,
    "country": "Unknown",
    "cables": [],
    "cable_count": 0,
    "url": "",
    "feature_id": ""
  },
  {
    "landing_point_id": "naha-japan",
    "name": "Naha, Japan",
    "latitude": 26.21241384638718,
    "longitude": 127.68055019149426,
    "country": "Unknown",
    "cables": [],
    "cable_count": 0,
    "url": "",
    "feature_id": ""
  },
  {
    "landing_point_id": "toucheng-taiwan",
    "name": "Toucheng, Taiwan",
    "latitude": 24.863592858849902,
    "longitude": 121.80145279380189,
    "country": "Unknown",
    "cables": [],
    "cable_count": 0,
    "url": "",
    "feature_id": ""
  },
  {
    "landing_point_id": "karachi-pakistan",
    "name": "Karachi, Pakistan",
    "latitude": 24.88937409747322,
    "longitude": 67.02854237669561,
    "country": "Unknown",
    "cables": [],
    "cable_count": 0,
    "url": "",
    "feature_id": ""
  },
  {
    "landing_point_id": "haramous-djibouti",
    "name": "Haramous, Djibouti",
    "latitude": 11.57367892559012,
    "longitude": 43.16166943911836,
    "country": "Unknown",
    "cables": [],
    "cable_count": 0,
    "url": "",
    "feature_id": ""
  },
  {
    "landing_point_id": "puerto-barrios-guatemala",
    "name": "Puerto Barrios, Guatemala",
    "latitude": 15.727143540875408,
    "longitude": -88.59723848982233,
    "country": "Unknown",
    "cables": [],
    "cable_count": 0,
    "url": "",
    "feature_id": ""
  },
  {
    "landing_point_id": "west-palm-beach-fl-united-states",
    "name": "West Palm Beach, FL, United States",
    "latitude": 26.715357789296696,
    "longitude": -80.05334805801945,
    "country": "Unknown",
    "cables": [],
    "cable_count": 0,
    "url": "",
    "feature_id": ""
  },
  {
    "landing_point_id": "maldonado-uruguay",
    "name": "Maldonado, Uruguay",
    "latitude": -34.900379504866834,
    "longitude": -54.95017980618316,
    "country": "Unknown",
    "cables": [],
    "cable_count": 0,
    "url": "",
    "feature_id": ""
  },
  {
    "landing_point_id": "las-toninas-argentina",
    "name": "Las Toninas, Argentina",
    "latitude": -36.47252952471871,
    "longitude": -56.695491069788275,
    "country": "Unknown",
    "cables": [],
    "cable_count": 0,
    "url": "",
    "feature_id": ""
  },
  {
    "landing_point_id": "fort-amador-panama",
    "name": "Fort Amador, Panama",
    "latitude": 8.934109660849998,
    "longitude": -79.54673220597367,
    "country": "Unknown",
    "cables": [],
    "cable_count": 0,
    "url": "",
    "feature_id": ""
  },
  {
    "landing_point_id": "maruyama-japan",
    "name": "Maruyama, Japan",
    "latitude": 35.005432999999265,
    "longitude": 139.97546699999984,
    "country": "Unknown",
    "cables": [],
    "cable_count": 0,
    "url": "",
    "feature_id": ""
  },
  {
    "landing_point_id": "makaha-hi-united-states",
    "name": "Makaha, HI, United States",
    "latitude": 21.463431186887963,
    "longitude": -158.2206478576183,
    "country": "Unknown",
    "cables": [],
    "cable_count": 0,
    "url": "",
    "feature_id": ""
  },
  {
    "landing_point_id": "morro-bay-ca-united-states",
    "name": "Morro Bay, CA, United States",
    "latitude": 35.3666813511006,
    "longitude": -120.84720343661348,
    "country": "Unknown",
    "cables": [],
    "cable_count": 0,
    "url": "",
    "feature_id": ""
  },
  {
    "landing_point_id": "porthcurno-united-kingdom",
    "name": "Porthcurno, United Kingdom",
    "latitude": 50.043048657721435,
    "longitude": -5.654511602696961,
    "country": "Unknown",
    "cables": [],
    "cable_count": 0,
    "url": "",
    "feature_id": ""
  },
  {
    "landing_point_id": "estepona-spain",
    "name": "Estepona, Spain",
    "latitude": 36.42710220192439,
    "longitude": -5.145869384899948,
    "country": "Unknown",
    "cables": [],
    "cable_count": 0,
    "url": "",
    "feature_id": ""
  },
  {
    "landing_point_id": "palermo-italy",
    "name": "Palermo, Italy",
    "latitude": 38.12150089552133,
    "longitude": 13.358365553402518,
    "country": "Unknown",
    "cables": [],
    "cable_count": 0,
    "url": "",
    "feature_id": ""
  },
  {
    "landing_point_id": "alexandria-egypt",
    "name": "Alexandria, Egypt",
    "latitude": 31.191886381300385,
    "longitude": 29.889799154879793,
    "country": "Unknown",
    "cables": [],
    "cable_count": 0,
    "url": "",
    "feature_id": ""
  },
  {
    "landing_point_id": "suez-egypt",
    "name": "Suez, Egypt",
    "latitude": 29.9722883988634,
    "longitude": 32.53012931569517,
    "country": "Unknown",
    "cables": [],
    "cable_count": 0,
    "url": "",
    "feature_id": ""
  },
  {
    "landing_point_id": "fujairah-united-arab-emirates",
    "name": "Fujairah, United Arab Emirates",
    "latitude": 25.12169311729696,
    "longitude": 56.33372573425405,
    "country": "Unknown",
    "cables": [],
    "cable_count": 0,
    "url": "",
    "feature_id": ""
  },
  {
    "landing_point_id": "penang-malaysia",
    "name": "Penang, Malaysia",
    "latitude": 5.368393581488473,
    "longitude": 100.40982400223058,
    "country": "Unknown",
    "cables": [],
    "cable_count": 0,
    "url": "",
    "feature_id": ""
  },
  {
    "landing_point_id": "hillsboro-or-united-states",
    "name": "Hillsboro, OR, United States",
    "latitude": 45.522898824562965,
    "longitude": -122.98980067645105,
    "country": "Unknown",
    "cables": [],
    "cable_count": 0,
    "url": "",
    "feature_id": ""
  },
  {
    "landing_point_id": "kahe-point-hi-united-states",
    "name": "Kahe Point, HI, United States",
    "latitude": 21.35398165191293,
    "longitude": -158.1305815657343,
    "country": "Unknown",
    "cables": [],
    "cable_count": 0,
    "url": "",
    "feature_id": ""
  },
  {
    "landing_point_id": "suva-fiji",
    "name": "Suva, Fiji",
    "latitude": -18.123812280017187,
    "longitude": 178.43744782858172,
    "country": "Unknown",
    "cables": [],
    "cable_count": 0,
    "url": "",
    "feature_id": ""
  },
  {
    "landing_point_id": "savona-italy",
    "name": "Savona, Italy",
    "latitude": 44.305540140669045,
    "longitude": 8.483759631619103,
    "country": "Unknown",
    "cables": [],
    "cable_count": 0,
    "url": "",
    "feature_id": ""
  },
  {
    "landing_point_id": "baby-beach-aruba",
    "name": "Baby Beach, Aruba",
    "latitude": 12.414141621401608,
    "longitude": -69.87868485568913,
    "country": "Unknown",
    "cables": [],
    "cable_count": 0,
    "url": "",
    "feature_id": ""
  },
  {
    "landing_point_id": "halifax-ns-canada",
    "name": "Halifax, NS, Canada",
    "latitude": 44.64579771640326,
    "longitude": -63.573952993896306,
    "country": "Unknown",
    "cables": [],
    "cable_count": 0,
    "url": "",
    "feature_id": ""
  },
  {
    "landing_point_id": "lynn-ma-united-states",
    "name": "Lynn, MA, United States",
    "latitude": 42.46366906639672,
    "longitude": -70.95026612782192,
    "country": "Unknown",
    "cables": [],
    "cable_count": 0,
    "url": "",
    "feature_id": ""
  },
  {
    "landing_point_id": "dublin-ireland",
    "name": "Dublin, Ireland",
    "latitude": 53.348045408252375,
    "longitude": -6.248261182079236,
    "country": "Unknown",
    "cables": [],
    "cable_count": 0,
    "url": "",
    "feature_id": ""
  },
  {
    "landing_point_id": "southport-united-kingdom",
    "name": "Southport, United Kingdom",
    "latitude": 53.64793071295795,
    "longitude": -3.006368947416131,
    "country": "Unknown",
    "cables": [],
    "cable_count": 0,
    "url": "",
    "feature_id": ""
  },
  {
    "landing_point_id": "bude-united-kingdom",
    "name": "Bude, United Kingdom",
    "latitude": 50.82811048000128,
    "longitude": -4.544404967232005,
    "country": "Unknown",
    "cables": [],
    "cable_count": 0,
    "url": "",
    "feature_id": ""
  },
  {
    "landing_point_id": "san-juan-pr-united-states",
    "name": "San Juan, PR, United States",
    "latitude": 18.465839112933374,
    "longitude": -66.10666604344867,
    "country": "Unknown",
    "cables": [],
    "cable_count": 0,
    "url": "",
    "feature_id": ""
  },
  {
    "landing_point_id": "rio-de-janeiro-brazil",
    "name": "Rio de Janeiro, Brazil",
    "latitude": -22.90339400756494,
    "longitude": -43.209563123346165,
    "country": "Unknown",
    "cables": [],
    "cable_count": 0,
    "url": "",
    "feature_id": ""
  },
  {
    "landing_point_id": "santos-brazil",
    "name": "Santos, Brazil",
    "latitude": -23.961845467703107,
    "longitude": -46.32806677354495,
    "country": "Unknown",
    "cables": [],
    "cable_count": 0,
    "url": "",
    "feature_id": ""
  },
  {
    "landing_point_id": "valparaso-chile",
    "name": "Valpara\u00edso, Chile",
    "latitude": -33.045765558769304,
    "longitude": -71.62048049678572,
    "country": "Unknown",
    "cables": [],
    "cable_count": 0,
    "url": "",
    "feature_id": ""
  },
  {
    "landing_point_id": "arica-chile",
    "name": "Arica, Chile",
    "latitude": -18.473810108334412,
    "longitude": -70.30671189622174,
    "country": "Unknown",
    "cables": [],
    "cable_count": 0,
    "url": "",
    "feature_id": ""
  },
  {
    "landing_point_id": "yeroskipos-cyprus",
    "name": "Yeroskipos, Cyprus",
    "latitude": 34.76641137968897,
    "longitude": 32.46655514198169,
    "country": "Unknown",
    "cables": [],
    "cable_count": 0,
    "url": "",
    "feature_id": ""
  },
  {
    "landing_point_id": "marmaris-turkey",
    "name": "Marmaris, Turkey",
    "latitude": 36.85524944302755,
    "longitude": 28.25366750143074,
    "country": "Unknown",
    "cables": [],
    "cable_count": 0,
    "url": "",
    "feature_id": ""
  },
  {
    "landing_point_id": "mazara-del-vallo-italy",
    "name": "Mazara del Vallo, Italy",
    "latitude": 37.650130188288585,
    "longitude": 12.591276253065702,
    "country": "Unknown",
    "cables": [],
    "cable_count": 0,
    "url": "",
    "feature_id": ""
  },
  {
    "landing_point_id": "sesimbra-portugal",
    "name": "Sesimbra, Portugal",
    "latitude": 38.44269349871853,
    "longitude": -9.1027513474316,
    "country": "Unknown",
    "cables": [],
    "cable_count": 0,
    "url": "",
    "feature_id": ""
  },
  {
    "landing_point_id": "goonhilly-downs-united-kingdom",
    "name": "Goonhilly Downs, United Kingdom",
    "latitude": 50.0248026869269,
    "longitude": -5.174531473969396,
    "country": "Unknown",
    "cables": [],
    "cable_count": 0,
    "url": "",
    "feature_id": ""
  },
  {
    "landing_point_id": "sylt-germany",
    "name": "Sylt, Germany",
    "latitude": 54.89850565849031,
    "longitude": 8.383369077736644,
    "country": "Unknown",
    "cables": [],
    "cable_count": 0,
    "url": "",
    "feature_id": ""
  },
  {
    "landing_point_id": "dakar-senegal",
    "name": "Dakar, Senegal",
    "latitude": 14.686597713745336,
    "longitude": -17.451915354680473,
    "country": "Unknown",
    "cables": [],
    "cable_count": 0,
    "url": "",
    "feature_id": ""
  },
  {
    "landing_point_id": "conil-de-la-frontera-spain",
    "name": "Conil de la Frontera, Spain",
    "latitude": 36.2765632358394,
    "longitude": -6.087226139907921,
    "country": "Unknown",
    "cables": [],
    "cable_count": 0,
    "url": "",
    "feature_id": ""
  },
  {
    "landing_point_id": "nassau-bahamas",
    "name": "Nassau, Bahamas",
    "latitude": 25.067038149721757,
    "longitude": -77.34025183547105,
    "country": "Unknown",
    "cables": [],
    "cable_count": 0,
    "url": "",
    "feature_id": ""
  },
  {
    "landing_point_id": "crooked-island-bahamas",
    "name": "Crooked Island, Bahamas",
    "latitude": 22.629711836470232,
    "longitude": -74.19499039172877,
    "country": "Unknown",
    "cables": [],
    "cable_count": 0,
    "url": "",
    "feature_id": ""
  },
  {
    "landing_point_id": "providenciales-turks-and-caicos-islands",
    "name": "Providenciales, Turks and Caicos Islands",
    "latitude": 21.851092241181057,
    "longitude": -72.12023600213026,
    "country": "Unknown",
    "cables": [],
    "cable_count": 0,
    "url": "",
    "feature_id": ""
  },
  {
    "landing_point_id": "punta-cana-dominican-republic",
    "name": "Punta Cana, Dominican Republic",
    "latitude": 18.621279512611874,
    "longitude": -68.43825618860332,
    "country": "Unknown",
    "cables": [],
    "cable_count": 0,
    "url": "",
    "feature_id": ""
  },
  {
    "landing_point_id": "puerto-plata-dominican-republic",
    "name": "Puerto Plata, Dominican Republic",
    "latitude": 19.79934388457018,
    "longitude": -70.6912331081983,
    "country": "Unknown",
    "cables": [],
    "cable_count": 0,
    "url": "",
    "feature_id": ""
  },
  {
    "landing_point_id": "riohacha-colombia",
    "name": "Riohacha, Colombia",
    "latitude": 11.482908943707109,
    "longitude": -72.95270611552462,
    "country": "Unknown",
    "cables": [],
    "cable_count": 0,
    "url": "",
    "feature_id": ""
  },
  {
    "landing_point_id": "bluefields-nicaragua",
    "name": "Bluefields, Nicaragua",
    "latitude": 11.991778023043153,
    "longitude": -83.77146065844866,
    "country": "Unknown",
    "cables": [],
    "cable_count": 0,
    "url": "",
    "feature_id": ""
  },
  {
    "landing_point_id": "puerto-lempira-honduras",
    "name": "Puerto Lempira, Honduras",
    "latitude": 15.261220674450207,
    "longitude": -83.77675850625805,
    "country": "Unknown",
    "cables": [],
    "cable_count": 0,
    "url": "",
    "feature_id": ""
  },
  {
    "landing_point_id": "trujillo-honduras",
    "name": "Trujillo, Honduras",
    "latitude": 15.915150827636316,
    "longitude": -85.95475989302918,
    "country": "Unknown",
    "cables": [],
    "cable_count": 0,
    "url": "",
    "feature_id": ""
  },
  {
    "landing_point_id": "puerto-cortes-honduras",
    "name": "Puerto Cortes, Honduras",
    "latitude": 15.844797765849421,
    "longitude": -87.94606707611828,
    "country": "Unknown",
    "cables": [],
    "cable_count": 0,
    "url": "",
    "feature_id": ""
  },
  {
    "landing_point_id": "magens-bay-vi-united-states",
    "name": "Magen\u2019s Bay, VI, United States",
    "latitude": 18.372989080105853,
    "longitude": -64.93708679386458,
    "country": "Unknown",
    "cables": [],
    "cable_count": 0,
    "url": "",
    "feature_id": ""
  },
  {
    "landing_point_id": "samandag-turkey",
    "name": "Samandag, Turkey",
    "latitude": 36.08233778303261,
    "longitude": 35.99926748312506,
    "country": "Unknown",
    "cables": [],
    "cable_count": 0,
    "url": "",
    "feature_id": ""
  },
  {
    "landing_point_id": "girne-cyprus",
    "name": "Girne, Cyprus",
    "latitude": 35.2991225036909,
    "longitude": 33.23628115920059,
    "country": "Unknown",
    "cables": [],
    "cable_count": 0,
    "url": "",
    "feature_id": ""
  },
  {
    "landing_point_id": "bozyazi-turkey",
    "name": "Bozyazi, Turkey",
    "latitude": 36.09999800000024,
    "longitude": 32.966701999999856,
    "country": "Unknown",
    "cables": [],
    "cable_count": 0,
    "url": "",
    "feature_id": ""
  },
  {
    "landing_point_id": "daet-philippines",
    "name": "Daet, Philippines",
    "latitude": 14.116616393710665,
    "longitude": 122.94988948023871,
    "country": "Unknown",
    "cables": [],
    "cable_count": 0,
    "url": "",
    "feature_id": ""
  },
  {
    "landing_point_id": "dartmouth-united-kingdom",
    "name": "Dartmouth, United Kingdom",
    "latitude": 50.351741733083685,
    "longitude": -3.578390026566051,
    "country": "Unknown",
    "cables": [],
    "cable_count": 0,
    "url": "",
    "feature_id": ""
  },
  {
    "landing_point_id": "st-ouens-bay-jersey",
    "name": "St. Ouens Bay, Jersey",
    "latitude": 49.215711233966566,
    "longitude": -2.225900750307065,
    "country": "Unknown",
    "cables": [],
    "cable_count": 0,
    "url": "",
    "feature_id": ""
  },
  {
    "landing_point_id": "archirondel-jersey",
    "name": "Archirondel, Jersey",
    "latitude": 49.22527885088672,
    "longitude": -2.021311051490342,
    "country": "Unknown",
    "cables": [],
    "cable_count": 0,
    "url": "",
    "feature_id": ""
  },
  {
    "landing_point_id": "surville-france",
    "name": "Surville, France",
    "latitude": 49.28329065675959,
    "longitude": -1.650022252014811,
    "country": "Unknown",
    "cables": [],
    "cable_count": 0,
    "url": "",
    "feature_id": ""
  },
  {
    "landing_point_id": "greve-de-lecq-jersey",
    "name": "Greve de Lecq, Jersey",
    "latitude": 49.24794670647614,
    "longitude": -2.201437877011841,
    "country": "Unknown",
    "cables": [],
    "cable_count": 0,
    "url": "",
    "feature_id": ""
  },
  {
    "landing_point_id": "havelet-bay-guernsey",
    "name": "Havelet Bay, Guernsey",
    "latitude": 49.4509894968767,
    "longitude": -2.529513816474767,
    "country": "Unknown",
    "cables": [],
    "cable_count": 0,
    "url": "",
    "feature_id": ""
  },
  {
    "landing_point_id": "new-victoria-ns-canada",
    "name": "New Victoria, NS, Canada",
    "latitude": 46.25290729969465,
    "longitude": -60.12957066830409,
    "country": "Unknown",
    "cables": [],
    "cable_count": 0,
    "url": "",
    "feature_id": ""
  },
  {
    "landing_point_id": "rose-blanche-nl-canada",
    "name": "Rose Blanche, NL, Canada",
    "latitude": 47.61768929491325,
    "longitude": -58.68660294051598,
    "country": "Unknown",
    "cables": [],
    "cable_count": 0,
    "url": "",
    "feature_id": ""
  },
  {
    "landing_point_id": "lancresse-bay-guernsey",
    "name": "L'Ancresse Bay, Guernsey",
    "latitude": 49.503393052866365,
    "longitude": -2.533468891797979,
    "country": "Unknown",
    "cables": [],
    "cable_count": 0,
    "url": "",
    "feature_id": ""
  },
  {
    "landing_point_id": "saints-bay-guernsey",
    "name": "Saints Bay, Guernsey",
    "latitude": 49.42332555697762,
    "longitude": -2.55802942127399,
    "country": "Unknown",
    "cables": [],
    "cable_count": 0,
    "url": "",
    "feature_id": ""
  },
  {
    "landing_point_id": "pembroke-guernsey",
    "name": "Pembroke, Guernsey",
    "latitude": 49.50954423335227,
    "longitude": -2.537619279482766,
    "country": "Unknown",
    "cables": [],
    "cable_count": 0,
    "url": "",
    "feature_id": ""
  },
  {
    "landing_point_id": "malabo-equatorial-guinea",
    "name": "Malabo, Equatorial Guinea",
    "latitude": 3.749792920040749,
    "longitude": 8.783368794372972,
    "country": "Unknown",
    "cables": [],
    "cable_count": 0,
    "url": "",
    "feature_id": ""
  },
  {
    "landing_point_id": "shima-japan",
    "name": "Shima, Japan",
    "latitude": 34.33683057441225,
    "longitude": 136.87439133474103,
    "country": "Unknown",
    "cables": [],
    "cable_count": 0,
    "url": "",
    "feature_id": ""
  },
  {
    "landing_point_id": "dubrovnik-croatia",
    "name": "Dubrovnik, Croatia",
    "latitude": 42.64186152795143,
    "longitude": 18.106409064843877,
    "country": "Unknown",
    "cables": [],
    "cable_count": 0,
    "url": "",
    "feature_id": ""
  },
  {
    "landing_point_id": "aethos-greece",
    "name": "Aethos, Greece",
    "latitude": 39.683615198996556,
    "longitude": 20.01544924229398,
    "country": "Unknown",
    "cables": [],
    "cable_count": 0,
    "url": "",
    "feature_id": ""
  },
  {
    "landing_point_id": "corfu-greece",
    "name": "Corfu, Greece",
    "latitude": 39.61929827180403,
    "longitude": 19.9194937179377,
    "country": "Unknown",
    "cables": [],
    "cable_count": 0,
    "url": "",
    "feature_id": ""
  },
  {
    "landing_point_id": "durres-albania",
    "name": "Durres, Albania",
    "latitude": 41.316693174085714,
    "longitude": 19.45006045673864,
    "country": "Unknown",
    "cables": [],
    "cable_count": 0,
    "url": "",
    "feature_id": ""
  },
  {
    "landing_point_id": "bridgetown-barbados",
    "name": "Bridgetown, Barbados",
    "latitude": 13.098954014787664,
    "longitude": -59.61336009649245,
    "country": "Unknown",
    "cables": [],
    "cable_count": 0,
    "url": "",
    "feature_id": ""
  },
  {
    "landing_point_id": "castries-saint-lucia",
    "name": "Castries, Saint Lucia",
    "latitude": 13.994222056803721,
    "longitude": -61.00681614060512,
    "country": "Unknown",
    "cables": [],
    "cable_count": 0,
    "url": "",
    "feature_id": ""
  },
  {
    "landing_point_id": "pointe-a-pitre-guadeloupe",
    "name": "Pointe-a-Pitre, Guadeloupe",
    "latitude": 16.241044022954217,
    "longitude": -61.53308529904113,
    "country": "Unknown",
    "cables": [],
    "cable_count": 0,
    "url": "",
    "feature_id": ""
  },
  {
    "landing_point_id": "roseau-dominica",
    "name": "Roseau, Dominica",
    "latitude": 15.251799221840017,
    "longitude": -61.37073189842878,
    "country": "Unknown",
    "cables": [],
    "cable_count": 0,
    "url": "",
    "feature_id": ""
  },
  {
    "landing_point_id": "the-valley-anguilla",
    "name": "The Valley, Anguilla",
    "latitude": 18.217405253293137,
    "longitude": -63.0572053130902,
    "country": "Unknown",
    "cables": [],
    "cable_count": 0,
    "url": "",
    "feature_id": ""
  },
  {
    "landing_point_id": "cagliari-italy",
    "name": "Cagliari, Italy",
    "latitude": 39.21530980337921,
    "longitude": 9.109345125948376,
    "country": "Unknown",
    "cables": [],
    "cable_count": 0,
    "url": "",
    "feature_id": ""
  },
  {
    "landing_point_id": "civitavecchia-italy",
    "name": "Civitavecchia, Italy",
    "latitude": 42.091130652249426,
    "longitude": 11.796843222099477,
    "country": "Unknown",
    "cables": [],
    "cable_count": 0,
    "url": "",
    "feature_id": ""
  },
  {
    "landing_point_id": "olbia-italy",
    "name": "Olbia, Italy",
    "latitude": 40.923576400000215,
    "longitude": 9.49644289999974,
    "country": "Unknown",
    "cables": [],
    "cable_count": 0,
    "url": "",
    "feature_id": ""
  },
  {
    "landing_point_id": "khark-island-iran",
    "name": "Khark Island, Iran",
    "latitude": 29.245773309269826,
    "longitude": 50.31205031256539,
    "country": "Unknown",
    "cables": [],
    "cable_count": 0,
    "url": "",
    "feature_id": ""
  },
  {
    "landing_point_id": "soroosh-platform-iran",
    "name": "Soroosh Platform, Iran",
    "latitude": 29.072484050458698,
    "longitude": 49.47806652836741,
    "country": "Unknown",
    "cables": [],
    "cable_count": 0,
    "url": "",
    "feature_id": ""
  },
  {
    "landing_point_id": "diba-oman",
    "name": "Diba, Oman",
    "latitude": 25.616974601949348,
    "longitude": 56.258042194119106,
    "country": "Unknown",
    "cables": [],
    "cable_count": 0,
    "url": "",
    "feature_id": ""
  },
  {
    "landing_point_id": "tanah-merah-singapore",
    "name": "Tanah Merah, Singapore",
    "latitude": 1.327257988673153,
    "longitude": 103.9465826298595,
    "country": "Unknown",
    "cables": [],
    "cable_count": 0,
    "url": "",
    "feature_id": ""
  },
  {
    "landing_point_id": "nanhui-china",
    "name": "Nanhui, China",
    "latitude": 30.864713861582327,
    "longitude": 121.92506915087795,
    "country": "Unknown",
    "cables": [],
    "cable_count": 0,
    "url": "",
    "feature_id": ""
  },
  {
    "landing_point_id": "ajigaura-japan",
    "name": "Ajigaura, Japan",
    "latitude": 36.38355921004956,
    "longitude": 140.61227931178595,
    "country": "Unknown",
    "cables": [],
    "cable_count": 0,
    "url": "",
    "feature_id": ""
  },
  {
    "landing_point_id": "brookhaven-ny-united-states",
    "name": "Brookhaven, NY, United States",
    "latitude": 40.773148001414974,
    "longitude": -72.91227645666531,
    "country": "Unknown",
    "cables": [],
    "cable_count": 0,
    "url": "",
    "feature_id": ""
  },
  {
    "landing_point_id": "beverwijk-netherlands",
    "name": "Beverwijk, Netherlands",
    "latitude": 52.48631265079464,
    "longitude": 4.656906873847417,
    "country": "Unknown",
    "cables": [],
    "cable_count": 0,
    "url": "",
    "feature_id": ""
  },
  {
    "landing_point_id": "whitesands-bay-united-kingdom",
    "name": "Whitesands Bay, United Kingdom",
    "latitude": 50.07851709909518,
    "longitude": -5.6984568840657,
    "country": "Unknown",
    "cables": [],
    "cable_count": 0,
    "url": "",
    "feature_id": ""
  },
  {
    "landing_point_id": "grover-beach-ca-united-states",
    "name": "Grover Beach, CA, United States",
    "latitude": 35.1206334382351,
    "longitude": -120.62142234655879,
    "country": "Unknown",
    "cables": [],
    "cable_count": 0,
    "url": "",
    "feature_id": ""
  },
  {
    "landing_point_id": "tijuana-mexico",
    "name": "Tijuana, Mexico",
    "latitude": 32.53084977596535,
    "longitude": -117.03822175993173,
    "country": "Unknown",
    "cables": [],
    "cable_count": 0,
    "url": "",
    "feature_id": ""
  },
  {
    "landing_point_id": "northport-ny-united-states",
    "name": "Northport, NY, United States",
    "latitude": 40.90945509894606,
    "longitude": -73.34411208824892,
    "country": "Unknown",
    "cables": [],
    "cable_count": 0,
    "url": "",
    "feature_id": ""
  },
  {
    "landing_point_id": "spencer-beach-hi-united-states",
    "name": "Spencer Beach, HI, United States",
    "latitude": 20.02310522788954,
    "longitude": -155.8220871073432,
    "country": "Unknown",
    "cables": [],
    "cable_count": 0,
    "url": "",
    "feature_id": ""
  },
  {
    "landing_point_id": "takapuna-new-zealand",
    "name": "Takapuna, New Zealand",
    "latitude": -36.78796527793357,
    "longitude": 174.76791917811025,
    "country": "Unknown",
    "cables": [],
    "cable_count": 0,
    "url": "",
    "feature_id": ""
  },
  {
    "landing_point_id": "whenuapai-new-zealand",
    "name": "Whenuapai, New Zealand",
    "latitude": -36.788806016342754,
    "longitude": 174.6233880304975,
    "country": "Unknown",
    "cables": [],
    "cable_count": 0,
    "url": "",
    "feature_id": ""
  },
  {
    "landing_point_id": "lurin-peru",
    "name": "Lurin, Peru",
    "latitude": -12.278527239265857,
    "longitude": -76.87428536869109,
    "country": "Unknown",
    "cables": [],
    "cable_count": 0,
    "url": "",
    "feature_id": ""
  },
  {
    "landing_point_id": "palma-spain",
    "name": "Palma, Spain",
    "latitude": 39.55232558289561,
    "longitude": 2.60524817101164,
    "country": "Unknown",
    "cables": [],
    "cable_count": 0,
    "url": "",
    "feature_id": ""
  },
  {
    "landing_point_id": "santa-cruz-de-la-palma-canary-islands-spain",
    "name": "Santa Cruz de La Palma, Canary Islands, Spain",
    "latitude": 28.663181918946645,
    "longitude": -17.76524521083967,
    "country": "Unknown",
    "cables": [],
    "cable_count": 0,
    "url": "",
    "feature_id": ""
  },
  {
    "landing_point_id": "granadilla-de-abona-spain",
    "name": "Granadilla de Abona, Spain",
    "latitude": 28.059115806261115,
    "longitude": -16.518053538916995,
    "country": "Unknown",
    "cables": [],
    "cable_count": 0,
    "url": "",
    "feature_id": ""
  },
  {
    "landing_point_id": "nukualofa-tonga",
    "name": "Nuku'alofa, Tonga",
    "latitude": -21.133285523298625,
    "longitude": -175.2000320590245,
    "country": "Unknown",
    "cables": [],
    "cable_count": 0,
    "url": "",
    "feature_id": ""
  },
  {
    "landing_point_id": "fresh-creek-bahamas",
    "name": "Fresh Creek, Bahamas",
    "latitude": 24.689806158505295,
    "longitude": -77.84460938833539,
    "country": "Unknown",
    "cables": [],
    "cable_count": 0,
    "url": "",
    "feature_id": ""
  },
  {
    "landing_point_id": "port-nelson-bahamas",
    "name": "Port Nelson, Bahamas",
    "latitude": 23.652143168499897,
    "longitude": -74.84054657503567,
    "country": "Unknown",
    "cables": [],
    "cable_count": 0,
    "url": "",
    "feature_id": ""
  },
  {
    "landing_point_id": "george-town-bahamas",
    "name": "George Town, Bahamas",
    "latitude": 23.516551982193732,
    "longitude": -75.78800684134592,
    "country": "Unknown",
    "cables": [],
    "cable_count": 0,
    "url": "",
    "feature_id": ""
  },
  {
    "landing_point_id": "clarence-town-bahamas",
    "name": "Clarence Town, Bahamas",
    "latitude": 23.09834303441083,
    "longitude": -74.96618125165993,
    "country": "Unknown",
    "cables": [],
    "cable_count": 0,
    "url": "",
    "feature_id": ""
  },
  {
    "landing_point_id": "cockburn-town-bahamas",
    "name": "Cockburn Town, Bahamas",
    "latitude": 24.05253194857149,
    "longitude": -74.53024406048189,
    "country": "Unknown",
    "cables": [],
    "cable_count": 0,
    "url": "",
    "feature_id": ""
  },
  {
    "landing_point_id": "governors-harbor-bahamas",
    "name": "Governors Harbor, Bahamas",
    "latitude": 25.196118966380833,
    "longitude": -76.24064323944407,
    "country": "Unknown",
    "cables": [],
    "cable_count": 0,
    "url": "",
    "feature_id": ""
  },
  {
    "landing_point_id": "duncan-town-bahamas",
    "name": "Duncan Town, Bahamas",
    "latitude": 22.183261833926533,
    "longitude": -75.73346586435832,
    "country": "Unknown",
    "cables": [],
    "cable_count": 0,
    "url": "",
    "feature_id": ""
  },
  {
    "landing_point_id": "mayaguana-bahamas",
    "name": "Mayaguana, Bahamas",
    "latitude": 22.40156502331468,
    "longitude": -73.0641318178386,
    "country": "Unknown",
    "cables": [],
    "cable_count": 0,
    "url": "",
    "feature_id": ""
  },
  {
    "landing_point_id": "kuala-tungkal-indonesia",
    "name": "Kuala Tungkal, Indonesia",
    "latitude": -0.816539442758962,
    "longitude": 103.46670015731281,
    "country": "Unknown",
    "cables": [],
    "cable_count": 0,
    "url": "",
    "feature_id": ""
  },
  {
    "landing_point_id": "batam-indonesia",
    "name": "Batam, Indonesia",
    "latitude": 1.066796188550793,
    "longitude": 104.01664054897991,
    "country": "Unknown",
    "cables": [],
    "cable_count": 0,
    "url": "",
    "feature_id": ""
  },
  {
    "landing_point_id": "sakra-island-singapore",
    "name": "Sakra Island, Singapore",
    "latitude": 1.258916074584671,
    "longitude": 103.70419998906566,
    "country": "Unknown",
    "cables": [],
    "cable_count": 0,
    "url": "",
    "feature_id": ""
  },
  {
    "landing_point_id": "hiva-oa-french-polynesia",
    "name": "Hiva Oa, French Polynesia",
    "latitude": -9.754675849911433,
    "longitude": -139.02112549855988,
    "country": "Unknown",
    "cables": [],
    "cable_count": 0,
    "url": "",
    "feature_id": ""
  },
  {
    "landing_point_id": "nuku-hiva-french-polynesia",
    "name": "Nuku Hiva, French Polynesia",
    "latitude": -8.860487903690377,
    "longitude": -140.14209638414113,
    "country": "Unknown",
    "cables": [],
    "cable_count": 0,
    "url": "",
    "feature_id": ""
  },
  {
    "landing_point_id": "suro-guinea-bissau",
    "name": "Suro, Guinea-Bissau",
    "latitude": 11.774131923775238,
    "longitude": -15.791145687980318,
    "country": "Unknown",
    "cables": [],
    "cable_count": 0,
    "url": "",
    "feature_id": ""
  },
  {
    "landing_point_id": "duynefontein-south-africa",
    "name": "Duynefontein, South Africa",
    "latitude": -33.69332250414625,
    "longitude": 18.449914853508062,
    "country": "Unknown",
    "cables": [],
    "cable_count": 0,
    "url": "",
    "feature_id": ""
  },
  {
    "landing_point_id": "tuasivi-samoa",
    "name": "Tuasivi, Samoa",
    "latitude": -13.670594022635894,
    "longitude": -172.17816102572917,
    "country": "Unknown",
    "cables": [],
    "cable_count": 0,
    "url": "",
    "feature_id": ""
  },
  {
    "landing_point_id": "puerto-montt-chile",
    "name": "Puerto Montt, Chile",
    "latitude": -41.46037424479032,
    "longitude": -72.9534112342951,
    "country": "Unknown",
    "cables": [],
    "cable_count": 0,
    "url": "",
    "feature_id": ""
  },
  {
    "landing_point_id": "punta-arenas-chile",
    "name": "Punta Arenas, Chile",
    "latitude": -53.16665547850115,
    "longitude": -70.93333257585476,
    "country": "Unknown",
    "cables": [],
    "cable_count": 0,
    "url": "",
    "feature_id": ""
  },
  {
    "landing_point_id": "puerto-williams-chile",
    "name": "Puerto Williams, Chile",
    "latitude": -54.935200597435504,
    "longitude": -67.6058614273846,
    "country": "Unknown",
    "cables": [],
    "cable_count": 0,
    "url": "",
    "feature_id": ""
  },
  {
    "landing_point_id": "tortel-chile",
    "name": "Tortel, Chile",
    "latitude": -47.80121466459952,
    "longitude": -73.53688749922706,
    "country": "Unknown",
    "cables": [],
    "cable_count": 0,
    "url": "",
    "feature_id": ""
  },
  {
    "landing_point_id": "buffalo-ny-united-states",
    "name": "Buffalo, NY, United States",
    "latitude": 42.88543648440449,
    "longitude": -78.87846124712107,
    "country": "Unknown",
    "cables": [],
    "cable_count": 0,
    "url": "",
    "feature_id": ""
  },
  {
    "landing_point_id": "toronto-on-canada",
    "name": "Toronto, ON, Canada",
    "latitude": 43.64855718648997,
    "longitude": -79.38531972935779,
    "country": "Unknown",
    "cables": [],
    "cable_count": 0,
    "url": "",
    "feature_id": ""
  },
  {
    "landing_point_id": "dania-beach-fl-united-states",
    "name": "Dania Beach, FL, United States",
    "latitude": 26.052316286427192,
    "longitude": -80.14394128131609,
    "country": "Unknown",
    "cables": [],
    "cable_count": 0,
    "url": "",
    "feature_id": ""
  },
  {
    "landing_point_id": "guantanamo-bay-cuba",
    "name": "Guantanamo Bay, Cuba",
    "latitude": 19.939616197540328,
    "longitude": -75.15816600469212,
    "country": "Unknown",
    "cables": [],
    "cable_count": 0,
    "url": "",
    "feature_id": ""
  },
  {
    "landing_point_id": "newcastle-united-kingdom",
    "name": "Newcastle, United Kingdom",
    "latitude": 54.978249214505595,
    "longitude": -1.617778331330762,
    "country": "Unknown",
    "cables": [],
    "cable_count": 0,
    "url": "",
    "feature_id": ""
  },
  {
    "landing_point_id": "endrup-denmark",
    "name": "Endrup, Denmark",
    "latitude": 55.523118197393856,
    "longitude": 8.718388990908426,
    "country": "Unknown",
    "cables": [],
    "cable_count": 0,
    "url": "",
    "feature_id": ""
  },
  {
    "landing_point_id": "eemshaven-netherlands",
    "name": "Eemshaven, Netherlands",
    "latitude": 53.4428046914825,
    "longitude": 6.816022174500881,
    "country": "Unknown",
    "cables": [],
    "cable_count": 0,
    "url": "",
    "feature_id": ""
  },
  {
    "landing_point_id": "pegwell-barbados",
    "name": "Pegwell, Barbados",
    "latitude": 13.062605447541747,
    "longitude": -59.53633378387061,
    "country": "Unknown",
    "cables": [],
    "cable_count": 0,
    "url": "",
    "feature_id": ""
  },
  {
    "landing_point_id": "georgetown-guyana",
    "name": "Georgetown, Guyana",
    "latitude": 6.804497184903389,
    "longitude": -58.15484062190828,
    "country": "Unknown",
    "cables": [],
    "cable_count": 0,
    "url": "",
    "feature_id": ""
  },
  {
    "landing_point_id": "mt-lavinia-sri-lanka",
    "name": "Mt. Lavinia, Sri Lanka",
    "latitude": 6.833211066334108,
    "longitude": 79.86679011789853,
    "country": "Unknown",
    "cables": [],
    "cable_count": 0,
    "url": "",
    "feature_id": ""
  },
  {
    "landing_point_id": "kourou-french-guiana",
    "name": "Kourou, French Guiana",
    "latitude": 5.16829853939239,
    "longitude": -52.64555499899603,
    "country": "Unknown",
    "cables": [],
    "cable_count": 0,
    "url": "",
    "feature_id": ""
  },
  {
    "landing_point_id": "flying-fish-cove-christmas-island",
    "name": "Flying Fish Cove, Christmas Island",
    "latitude": -10.437358645528692,
    "longitude": 105.69706984367991,
    "country": "Unknown",
    "cables": [],
    "cable_count": 0,
    "url": "",
    "feature_id": ""
  },
  {
    "landing_point_id": "kikori-papua-new-guinea",
    "name": "Kikori, Papua New Guinea",
    "latitude": -7.413514034786931,
    "longitude": 144.2402064292285,
    "country": "Unknown",
    "cables": [],
    "cable_count": 0,
    "url": "",
    "feature_id": ""
  },
  {
    "landing_point_id": "kamorta-india",
    "name": "Kamorta, India",
    "latitude": 8.172231912838134,
    "longitude": 93.48140933746261,
    "country": "Unknown",
    "cables": [],
    "cable_count": 0,
    "url": "",
    "feature_id": ""
  },
  {
    "landing_point_id": "ternate-indonesia",
    "name": "Ternate, Indonesia",
    "latitude": 0.79580852872504,
    "longitude": 127.36133655044124,
    "country": "Unknown",
    "cables": [],
    "cable_count": 0,
    "url": "",
    "feature_id": ""
  },
  {
    "landing_point_id": "sofifi-indonesia",
    "name": "Sofifi, Indonesia",
    "latitude": 0.734974159349461,
    "longitude": 127.56143406494019,
    "country": "Unknown",
    "cables": [],
    "cable_count": 0,
    "url": "",
    "feature_id": ""
  },
  {
    "landing_point_id": "tidore-indonesia",
    "name": "Tidore, Indonesia",
    "latitude": 0.674004693399349,
    "longitude": 127.40408554359549,
    "country": "Unknown",
    "cables": [],
    "cable_count": 0,
    "url": "",
    "feature_id": ""
  },
  {
    "landing_point_id": "luwuk-indonesia",
    "name": "Luwuk, Indonesia",
    "latitude": -0.938827229844351,
    "longitude": 122.79278509934603,
    "country": "Unknown",
    "cables": [],
    "cable_count": 0,
    "url": "",
    "feature_id": ""
  },
  {
    "landing_point_id": "salakan-indonesia",
    "name": "Salakan, Indonesia",
    "latitude": -1.301013030053515,
    "longitude": 123.3401968209294,
    "country": "Unknown",
    "cables": [],
    "cable_count": 0,
    "url": "",
    "feature_id": ""
  },
  {
    "landing_point_id": "bangga-indonesia",
    "name": "Bangga, Indonesia",
    "latitude": -1.600278223931106,
    "longitude": 123.5275341004328,
    "country": "Unknown",
    "cables": [],
    "cable_count": 0,
    "url": "",
    "feature_id": ""
  },
  {
    "landing_point_id": "taliabu-indonesia",
    "name": "Taliabu, Indonesia",
    "latitude": -1.826840253714747,
    "longitude": 124.7740581098555,
    "country": "Unknown",
    "cables": [],
    "cable_count": 0,
    "url": "",
    "feature_id": ""
  },
  {
    "landing_point_id": "sanana-indonesia",
    "name": "Sanana, Indonesia",
    "latitude": -2.201449043927759,
    "longitude": 125.93699673914386,
    "country": "Unknown",
    "cables": [],
    "cable_count": 0,
    "url": "",
    "feature_id": ""
  },
  {
    "landing_point_id": "kendari-indonesia",
    "name": "Kendari, Indonesia",
    "latitude": -3.998447236539088,
    "longitude": 122.51297572725252,
    "country": "Unknown",
    "cables": [],
    "cable_count": 0,
    "url": "",
    "feature_id": ""
  },
  {
    "landing_point_id": "wawonii-indonesia",
    "name": "Wawonii, Indonesia",
    "latitude": -4.136148734803371,
    "longitude": 123.12388838041427,
    "country": "Unknown",
    "cables": [],
    "cable_count": 0,
    "url": "",
    "feature_id": ""
  },
  {
    "landing_point_id": "raha-indonesia",
    "name": "Raha, Indonesia",
    "latitude": -4.832382529604614,
    "longitude": 122.72108104857878,
    "country": "Unknown",
    "cables": [],
    "cable_count": 0,
    "url": "",
    "feature_id": ""
  },
  {
    "landing_point_id": "buranga-indonesia",
    "name": "Buranga, Indonesia",
    "latitude": -4.792266637754579,
    "longitude": 122.85611021090891,
    "country": "Unknown",
    "cables": [],
    "cable_count": 0,
    "url": "",
    "feature_id": ""
  },
  {
    "landing_point_id": "lakudo-indonesia",
    "name": "Lakudo, Indonesia",
    "latitude": -5.38911765238875,
    "longitude": 122.55989952213733,
    "country": "Unknown",
    "cables": [],
    "cable_count": 0,
    "url": "",
    "feature_id": ""
  },
  {
    "landing_point_id": "baubau-indonesia",
    "name": "Baubau, Indonesia",
    "latitude": -5.507063767817269,
    "longitude": 122.59688680062212,
    "country": "Unknown",
    "cables": [],
    "cable_count": 0,
    "url": "",
    "feature_id": ""
  },
  {
    "landing_point_id": "ijmuiden-netherlands",
    "name": "Ijmuiden, Netherlands",
    "latitude": 52.45851826150987,
    "longitude": 4.613685008225113,
    "country": "Unknown",
    "cables": [],
    "cable_count": 0,
    "url": "",
    "feature_id": ""
  },
  {
    "landing_point_id": "takaroa-french-polynesia",
    "name": "Takaroa, French Polynesia",
    "latitude": -14.449768610910688,
    "longitude": -144.97220770853863,
    "country": "Unknown",
    "cables": [],
    "cable_count": 0,
    "url": "",
    "feature_id": ""
  },
  {
    "landing_point_id": "manihi-french-polynesia",
    "name": "Manihi, French Polynesia",
    "latitude": -14.402893905977733,
    "longitude": -145.95814451009178,
    "country": "Unknown",
    "cables": [],
    "cable_count": 0,
    "url": "",
    "feature_id": ""
  },
  {
    "landing_point_id": "rangiroa-french-polynesia",
    "name": "Rangiroa, French Polynesia",
    "latitude": -15.116218466216106,
    "longitude": -147.65130737313953,
    "country": "Unknown",
    "cables": [],
    "cable_count": 0,
    "url": "",
    "feature_id": ""
  },
  {
    "landing_point_id": "arutua-french-polynesia",
    "name": "Arutua, French Polynesia",
    "latitude": -15.289899868101953,
    "longitude": -146.78615295672594,
    "country": "Unknown",
    "cables": [],
    "cable_count": 0,
    "url": "",
    "feature_id": ""
  },
  {
    "landing_point_id": "kaukura-french-polynesia",
    "name": "Kaukura, French Polynesia",
    "latitude": -15.741389321160499,
    "longitude": -146.6738422452723,
    "country": "Unknown",
    "cables": [],
    "cable_count": 0,
    "url": "",
    "feature_id": ""
  },
  {
    "landing_point_id": "fakarava-french-polynesia",
    "name": "Fakarava, French Polynesia",
    "latitude": -16.310313265214543,
    "longitude": -145.6245632034352,
    "country": "Unknown",
    "cables": [],
    "cable_count": 0,
    "url": "",
    "feature_id": ""
  },
  {
    "landing_point_id": "makemo-french-polynesia",
    "name": "Makemo, French Polynesia",
    "latitude": -16.539560977104614,
    "longitude": -143.86719140149896,
    "country": "Unknown",
    "cables": [],
    "cable_count": 0,
    "url": "",
    "feature_id": ""
  },
  {
    "landing_point_id": "sisimiut-greenland",
    "name": "Sisimiut, Greenland",
    "latitude": 66.93946731265544,
    "longitude": -53.67338627708164,
    "country": "Unknown",
    "cables": [],
    "cable_count": 0,
    "url": "",
    "feature_id": ""
  },
  {
    "landing_point_id": "maniitsoq-greenland",
    "name": "Maniitsoq, Greenland",
    "latitude": 65.40768043958342,
    "longitude": -52.90572324668234,
    "country": "Unknown",
    "cables": [],
    "cable_count": 0,
    "url": "",
    "feature_id": ""
  },
  {
    "landing_point_id": "aasiaat-greenland",
    "name": "Aasiaat, Greenland",
    "latitude": 68.70697200462038,
    "longitude": -52.85911683438676,
    "country": "Unknown",
    "cables": [],
    "cable_count": 0,
    "url": "",
    "feature_id": ""
  },
  {
    "landing_point_id": "dumai-indonesia",
    "name": "Dumai, Indonesia",
    "latitude": 1.665606179943663,
    "longitude": 101.44763420482612,
    "country": "Unknown",
    "cables": [],
    "cable_count": 0,
    "url": "",
    "feature_id": ""
  },
  {
    "landing_point_id": "jakarta-indonesia",
    "name": "Jakarta, Indonesia",
    "latitude": -6.171598654655946,
    "longitude": 106.82785500280222,
    "country": "Unknown",
    "cables": [],
    "cable_count": 0,
    "url": "",
    "feature_id": ""
  },
  {
    "landing_point_id": "bali-indonesia",
    "name": "Bali, Indonesia",
    "latitude": -8.464412294518892,
    "longitude": 115.59696500161938,
    "country": "Unknown",
    "cables": [],
    "cable_count": 0,
    "url": "",
    "feature_id": ""
  },
  {
    "landing_point_id": "seba-indonesia",
    "name": "Seba, Indonesia",
    "latitude": -10.457822046091534,
    "longitude": 121.87989512104575,
    "country": "Unknown",
    "cables": [],
    "cable_count": 0,
    "url": "",
    "feature_id": ""
  },
  {
    "landing_point_id": "baa-indonesia",
    "name": "Baa, Indonesia",
    "latitude": -10.733340209244103,
    "longitude": 123.03526539632057,
    "country": "Unknown",
    "cables": [],
    "cable_count": 0,
    "url": "",
    "feature_id": ""
  },
  {
    "landing_point_id": "alor-indonesia",
    "name": "Alor, Indonesia",
    "latitude": -8.32065399999956,
    "longitude": 124.40375899999984,
    "country": "Unknown",
    "cables": [],
    "cable_count": 0,
    "url": "",
    "feature_id": ""
  },
  {
    "landing_point_id": "kokar-indonesia",
    "name": "Kokar, Indonesia",
    "latitude": -8.158311369783492,
    "longitude": 124.45345286822533,
    "country": "Unknown",
    "cables": [],
    "cable_count": 0,
    "url": "",
    "feature_id": ""
  },
  {
    "landing_point_id": "tiakur-indonesia",
    "name": "Tiakur, Indonesia",
    "latitude": -8.150331686078742,
    "longitude": 127.7878715476518,
    "country": "Unknown",
    "cables": [],
    "cable_count": 0,
    "url": "",
    "feature_id": ""
  },
  {
    "landing_point_id": "serwaru-indonesia",
    "name": "Serwaru, Indonesia",
    "latitude": -8.158118033985609,
    "longitude": 127.69148768374592,
    "country": "Unknown",
    "cables": [],
    "cable_count": 0,
    "url": "",
    "feature_id": ""
  },
  {
    "landing_point_id": "suemlaki-indonesia",
    "name": "Suemlaki, Indonesia",
    "latitude": -8.052228527722814,
    "longitude": 131.21304280623139,
    "country": "Unknown",
    "cables": [],
    "cable_count": 0,
    "url": "",
    "feature_id": ""
  },
  {
    "landing_point_id": "dunnet-head-united-kingdom",
    "name": "Dunnet Head, United Kingdom",
    "latitude": 58.670331191552904,
    "longitude": -3.376583528902636,
    "country": "Unknown",
    "cables": [],
    "cable_count": 0,
    "url": "",
    "feature_id": ""
  },
  {
    "landing_point_id": "leava-wallis-and-futuna",
    "name": "Leava, Wallis and Futuna",
    "latitude": -14.29683787673267,
    "longitude": -178.1581082290078,
    "country": "Unknown",
    "cables": [],
    "cable_count": 0,
    "url": "",
    "feature_id": ""
  },
  {
    "landing_point_id": "mata-utu-wallis-and-futuna",
    "name": "Mata-Utu, Wallis and Futuna",
    "latitude": -13.282000575148167,
    "longitude": -176.17500035041277,
    "country": "Unknown",
    "cables": [],
    "cable_count": 0,
    "url": "",
    "feature_id": ""
  },
  {
    "landing_point_id": "savusavu-fiji",
    "name": "Savusavu, Fiji",
    "latitude": -16.80801177359569,
    "longitude": 179.34974953178585,
    "country": "Unknown",
    "cables": [],
    "cable_count": 0,
    "url": "",
    "feature_id": ""
  },
  {
    "landing_point_id": "nelson-new-zealand",
    "name": "Nelson, New Zealand",
    "latitude": -41.2722550869257,
    "longitude": 173.28395005547594,
    "country": "Unknown",
    "cables": [],
    "cable_count": 0,
    "url": "",
    "feature_id": ""
  },
  {
    "landing_point_id": "levin-new-zealand",
    "name": "Levin, New Zealand",
    "latitude": -40.625283896847584,
    "longitude": 175.28531582518968,
    "country": "Unknown",
    "cables": [],
    "cable_count": 0,
    "url": "",
    "feature_id": ""
  },
  {
    "landing_point_id": "gustavia-saint-barthlemy",
    "name": "Gustavia, Saint Barth\u00e9lemy",
    "latitude": 17.897915647022234,
    "longitude": -62.85054881266757,
    "country": "Unknown",
    "cables": [],
    "cable_count": 0,
    "url": "",
    "feature_id": ""
  },
  {
    "landing_point_id": "st-louis-saint-martin",
    "name": "St. Louis, Saint Martin",
    "latitude": 18.08992880691782,
    "longitude": -63.078144550760726,
    "country": "Unknown",
    "cables": [],
    "cable_count": 0,
    "url": "",
    "feature_id": ""
  },
  {
    "landing_point_id": "baie-mahault-guadeloupe",
    "name": "Baie-Mahault, Guadeloupe",
    "latitude": 16.244479667931955,
    "longitude": -61.5717247194846,
    "country": "Unknown",
    "cables": [],
    "cable_count": 0,
    "url": "",
    "feature_id": ""
  },
  {
    "landing_point_id": "copa-club-jamaica",
    "name": "Copa Club, Jamaica",
    "latitude": 17.942952785882994,
    "longitude": -76.68936118328712,
    "country": "Unknown",
    "cables": [],
    "cable_count": 0,
    "url": "",
    "feature_id": ""
  },
  {
    "landing_point_id": "weno-chuuk-micronesia",
    "name": "Weno, Chuuk, Micronesia",
    "latitude": 7.439993539798909,
    "longitude": 151.85848716518078,
    "country": "Unknown",
    "cables": [],
    "cable_count": 0,
    "url": "",
    "feature_id": ""
  },
  {
    "landing_point_id": "magachgil-yap-micronesia",
    "name": "Magachgil, Yap, Micronesia",
    "latitude": 9.443922836169385,
    "longitude": 138.06149986878208,
    "country": "Unknown",
    "cables": [],
    "cable_count": 0,
    "url": "",
    "feature_id": ""
  },
  {
    "landing_point_id": "ngeremlengui-palau",
    "name": "Ngeremlengui, Palau",
    "latitude": 7.531746239289517,
    "longitude": 134.56094082517401,
    "country": "Unknown",
    "cables": [],
    "cable_count": 0,
    "url": "",
    "feature_id": ""
  },
  {
    "landing_point_id": "el-segundo-ca-united-states",
    "name": "El Segundo, CA, United States",
    "latitude": 33.91992001851462,
    "longitude": -118.4159551589325,
    "country": "Unknown",
    "cables": [],
    "cable_count": 0,
    "url": "",
    "feature_id": ""
  },
  {
    "landing_point_id": "sangano-angola",
    "name": "Sangano, Angola",
    "latitude": -9.490068430331165,
    "longitude": 13.201444277847978,
    "country": "Unknown",
    "cables": [],
    "cable_count": 0,
    "url": "",
    "feature_id": ""
  },
  {
    "landing_point_id": "aden-yemen",
    "name": "Aden, Yemen",
    "latitude": 12.800683889023277,
    "longitude": 45.0335384269116,
    "country": "Unknown",
    "cables": [],
    "cable_count": 0,
    "url": "",
    "feature_id": ""
  },
  {
    "landing_point_id": "djibouti-city-djibouti",
    "name": "Djibouti City, Djibouti",
    "latitude": 11.594678044710776,
    "longitude": 43.14799288765091,
    "country": "Unknown",
    "cables": [],
    "cable_count": 0,
    "url": "",
    "feature_id": ""
  },
  {
    "landing_point_id": "bp-clair-ridge-united-kingdom",
    "name": "BP Clair Ridge, United Kingdom",
    "latitude": 60.44104932347154,
    "longitude": -2.294930049347119,
    "country": "Unknown",
    "cables": [],
    "cable_count": 0,
    "url": "",
    "feature_id": ""
  },
  {
    "landing_point_id": "baie-longue-saint-martin",
    "name": "Baie Longue, Saint Martin",
    "latitude": 18.05965128120834,
    "longitude": -63.14570622695726,
    "country": "Unknown",
    "cables": [],
    "cable_count": 0,
    "url": "",
    "feature_id": ""
  },